[
  {
    "location": "信義區",
    "address": "忠孝東路/松仁路(東南側)",
    "lat": 25.0408578889,
    "lng": 121.567904444,
    "country": "台北市"
  },
  {
    "location": "信義區",
    "address": "台北市政府東門(松智路)(鄰近信義商圈/台北探索館)",
    "lat": 25.0377972222,
    "lng": 121.565169444,
    "country": "台北市"
  },
  {
    "location": "信義區",
    "address": "信義路五段  市府路",
    "lat": 25.03303,
    "lng": 121.563414
  },
  {
    "location": "信義區",
    "address": "吳興街    487號(公車總站)",
    "lat": 25.023372,
    "lng": 121.569787
  },
  {
    "location": "信義區",
    "address": "信安街    吳興街220巷59弄",
    "lat": 25.027075,
    "lng": 121.558247
  },
  {
    "location": "信義區",
    "address": "吳興街    松仁路",
    "lat": 25.02371009,
    "lng": 121.5699935
  },
  {
    "location": "信義區",
    "address": "莊敬路    239巷",
    "lat": 25.029554,
    "lng": 121.562242
  },
  {
    "location": "信義區",
    "address": "松智路    松平路",
    "lat": 25.030466,
    "lng": 121.565363
  },
  {
    "location": "信義區",
    "address": "松仁路    松平路",
    "lat": 25.030415,
    "lng": 121.56829
  },
  {
    "location": "信義區",
    "address": "松仁路    信義國中",
    "lat": 25.028501,
    "lng": 121.568335
  },
  {
    "location": "信義區",
    "address": "莊敬路    莊敬路197巷",
    "lat": 25.030734,
    "lng": 121.561288
  },
  {
    "location": "信義區",
    "address": "基隆路二段  吳興街",
    "lat": 25.032019,
    "lng": 121.558956
  },
  {
    "location": "信義區",
    "address": "松勤路    信義國小",
    "lat": 25.032028,
    "lng": 121.563336
  },
  {
    "location": "信義區",
    "address": "松智路    松勤路",
    "lat": 25.031972,
    "lng": 121.565379
  },
  {
    "location": "信義區",
    "address": "松仁路    松勤路",
    "lat": 25.031887,
    "lng": 121.568291
  },
  {
    "location": "信義區",
    "address": "光復南路   文昌街",
    "lat": 25.032123,
    "lng": 121.557446
  },
  {
    "location": "信義區",
    "address": "莊敬路    松勤路",
    "lat": 25.03206,
    "lng": 121.561314
  },
  {
    "location": "信義區",
    "address": "信義路五段91巷 松勇路53巷",
    "lat": 25.034184,
    "lng": 121.571746
  },
  {
    "location": "信義區",
    "address": "信義路五段  松智路",
    "lat": 25.03288,
    "lng": 121.565406
  },
  {
    "location": "信義區",
    "address": "信義路五段  松仁路",
    "lat": 25.032826,
    "lng": 121.568272
  },
  {
    "location": "信義區",
    "address": "松山路650巷15弄 永春高中",
    "lat": 25.032765,
    "lng": 121.578973
  },
  {
    "location": "信義區",
    "address": "松德路168巷      松德路180巷",
    "lat": 25.036513,
    "lng": 121.573552
  },
  {
    "location": "信義區",
    "address": "松德路    松德路168巷",
    "lat": 25.036507,
    "lng": 121.574632
  },
  {
    "location": "信義區",
    "address": "福德街    福德街84巷",
    "lat": 25.037138,
    "lng": 121.581517
  },
  {
    "location": "信義區",
    "address": "福德街51巷  福德街62巷",
    "lat": 25.036741,
    "lng": 121.580481
  },
  {
    "location": "信義區",
    "address": "松智路    松廉路",
    "lat": 25.034007,
    "lng": 121.565425
  },
  {
    "location": "信義區",
    "address": "松仁路    89號(荷蘭銀行)",
    "lat": 25.037403,
    "lng": 121.568382
  },
  {
    "location": "信義區",
    "address": "仁愛路四段  光復南路",
    "lat": 25.037669,
    "lng": 121.557562
  },
  {
    "location": "信義區",
    "address": "仁愛路四段  逸仙路",
    "lat": 25.037547,
    "lng": 121.561462
  },
  {
    "location": "信義區",
    "address": "仁愛路四段  基隆路二段",
    "lat": 25.033044,
    "lng": 121.559566
  },
  {
    "location": "信義區",
    "address": "仁愛路四段  市府路",
    "lat": 25.037475,
    "lng": 121.563537
  },
  {
    "location": "信義區",
    "address": "福德街    福德街137巷",
    "lat": 25.037579,
    "lng": 121.582678
  },
  {
    "location": "大安區",
    "address": "忠孝東路四段/光復南路口(西南側)",
    "lat": 25.041254,
    "lng": 121.55742,
    "country": "台北市"
  },
  {
    "location": "大安區",
    "address": "科技大樓站對面(復興南路2段西側)(鄰近資訊科學展示中心)",
    "lat": 25.025896,
    "lng": 121.543293,
    "country": "台北市"
  },
  {
    "location": "大安區",
    "address": "信義路三段/建國南路二段(西南側)(鄰近大安森林公園)",
    "lat": 25.03293,
    "lng": 121.53747,
    "country": "台北市"
  },
  {
    "location": "大安區",
    "address": "愛國東路/金山南路(西南側)",
    "lat": 25.03164,
    "lng": 121.52655,
    "country": "台北市"
  },
  {
    "location": "大安區",
    "address": "基隆路/長興街(東南側)",
    "lat": 25.017054,
    "lng": 121.544352,
    "country": "台北市"
  },
  {
    "location": "大安區",
    "address": "辛亥路/新生南路(高架橋下)",
    "lat": 25.022413,
    "lng": 121.53456,
    "country": "台北市"
  },
  {
    "location": "大安區",
    "address": "捷運出口外和平東路側",
    "lat": 25.023884,
    "lng": 121.553161,
    "country": "台北市"
  },
  {
    "location": "大安區",
    "address": "辛亥路二段(臺大外語學院外)",
    "lat": 25.02101,
    "lng": 121.54153,
    "country": "台北市"
  },
  {
    "location": "大安區",
    "address": "信義路/麗水街口(鄰近永康街)",
    "lat": 25.0337,
    "lng": 121.528988,
    "country": "台北市"
  },
  {
    "location": "大安區",
    "address": "和平東路/師大路口(北側)(鄰近臺灣師範大學)",
    "lat": 25.02665,
    "lng": 121.52889,
    "country": "台北市"
  },
  {
    "location": "大安區",
    "address": "羅斯福路四段/舟山路(東北側)(鄰近公館夜市)",
    "lat": 25.01476,
    "lng": 121.534538,
    "country": "台北市"
  },
  {
    "location": "大安區",
    "address": "忠孝東路三段/新生南路一段口東北側(鄰近國立台北科技大學)",
    "lat": 25.042275,
    "lng": 121.533939,
    "country": "台北市"
  },
  {
    "location": "大安區",
    "address": "忠孝東路/敦化南路(西南側廣場）(鄰近東區地下街)",
    "lat": 25.040901,
    "lng": 121.548252,
    "country": "台北市"
  },
  {
    "location": "大安區",
    "address": "建國南路二段/建國南路二段151巷(東北側)",
    "lat": 25.028798,
    "lng": 121.538073,
    "country": "台北市"
  },
  {
    "location": "大安區",
    "address": "新生南路二段/和平東路二段(東北側)",
    "lat": 25.026217,
    "lng": 121.53519,
    "country": "台北市"
  },
  {
    "location": "大安區",
    "address": "基隆路四段/基隆路四段73巷交叉口(鄰近國立台灣科技大學)",
    "lat": 25.0131,
    "lng": 121.539723,
    "country": "台北市"
  },
  {
    "location": "大安區",
    "address": "大安路一段/仁愛路四段",
    "lat": 25.037569,
    "lng": 121.545632,
    "country": "台北市"
  },
  {
    "location": "大安區",
    "address": "通化街/信義路四段(西南側)(鄰近臨江街夜市(通化夜市)/大安親子館)",
    "lat": 25.032985,
    "lng": 121.554204,
    "country": "台北市"
  },
  {
    "location": "大安區",
    "address": "羅斯福路/辛亥路交叉口(古亭國小前)",
    "lat": 25.020547,
    "lng": 121.528552,
    "country": "台北市"
  },
  {
    "location": "大安區",
    "address": "信義路三段31巷/信義路三段(南側)(鄰近大安森林公園)",
    "lat": 25.033344,
    "lng": 121.534236,
    "country": "台北市"
  },
  {
    "location": "大安區",
    "address": "信義路四段/敦化南路一段(東北側)",
    "lat": 25.033362,
    "lng": 121.54911,
    "country": "台北市"
  },
  {
    "location": "大安區",
    "address": "復興南路/信義路三段(西南側)",
    "lat": 25.033078,
    "lng": 121.543057,
    "country": "台北市"
  },
  {
    "location": "大安區",
    "address": "復興南路一段/仁愛路三段123巷13弄(西北側)",
    "lat": 25.040184,
    "lng": 121.543497,
    "country": "台北市"
  },
  {
    "location": "大安區",
    "address": "敦化南路二段/基隆路二段交叉口",
    "lat": 25.022073,
    "lng": 121.548336,
    "country": "台北市"
  },
  {
    "location": "大安區",
    "address": "四維路198巷/和平東路三段1巷",
    "lat": 25.026808,
    "lng": 121.546726,
    "country": "台北市"
  },
  {
    "location": "大安區",
    "address": "羅斯福路四段/新生南路三段交叉口(鄰近公館夜市)",
    "lat": 25.01603085,
    "lng": 121.5331757,
    "country": "台北市"
  },
  {
    "location": "大安區",
    "address": "和平東路三段/和平東路三段416巷(捷運高架橋下)(鄰近富陽自然生態公園)",
    "lat": 25.018097,
    "lng": 121.559279,
    "country": "台北市"
  },
  {
    "location": "大安區",
    "address": "建國南路二段/和平東路二段(西北側)",
    "lat": 25.02585,
    "lng": 121.537383,
    "country": "台北市"
  },
  {
    "location": "大安區",
    "address": "大安路一段/大安路一段75巷(西側)(鄰近東區地下街)",
    "lat": 25.042342,
    "lng": 121.54605,
    "country": "台北市"
  },
  {
    "location": "大安區",
    "address": "仁愛路四段/延吉街(東南側)(鄰近大安親子館)",
    "lat": 25.037465,
    "lng": 121.555769,
    "country": "台北市"
  },
  {
    "location": "大安區",
    "address": "臥龍街267號對面人行道(臥龍樂業街口)",
    "lat": 25.0186,
    "lng": 121.554839,
    "country": "台北市"
  },
  {
    "location": "大安區",
    "address": "基隆路二段166號前(喬治工商)",
    "lat": 25.027123,
    "lng": 121.555566,
    "country": "台北市"
  },
  {
    "location": "大安區",
    "address": "忠孝東路三段221號前方人行道",
    "lat": 25.04184,
    "lng": 121.539873,
    "country": "台北市"
  },
  {
    "location": "大安區",
    "address": "辛亥路三段55號前方人行道(大安運動中心)(鄰近國立臺北教育大學)",
    "lat": 25.020544,
    "lng": 121.545608,
    "country": "台北市"
  },
  {
    "location": "大安區",
    "address": "和平東二段  復興南二段",
    "lat": 25.024857,
    "lng": 121.543404
  },
  {
    "location": "大安區",
    "address": "和平東二段  建國南二段",
    "lat": 25.025636,
    "lng": 121.537651
  },
  {
    "location": "大安區",
    "address": "和平東二段  311巷(國立台北教育大學)",
    "lat": 25.0247,
    "lng": 121.545113
  },
  {
    "location": "大安區",
    "address": "和平東一段  金山南二段",
    "lat": 25.026789,
    "lng": 121.525894
  },
  {
    "location": "大安區",
    "address": "復興南二段148巷 開平中學",
    "lat": 25.028425,
    "lng": 121.542355
  },
  {
    "location": "大安區",
    "address": "敦化南二段     安和路二段171巷",
    "lat": 25.028082,
    "lng": 121.548763
  },
  {
    "location": "大安區",
    "address": "和平東一段     41巷",
    "lat": 25.026941,
    "lng": 121.523927
  },
  {
    "location": "大安區",
    "address": "安和路二段  189巷",
    "lat": 25.026916,
    "lng": 121.549835
  },
  {
    "location": "大安區",
    "address": "敦化南二段     200巷",
    "lat": 25.022798,
    "lng": 121.548725
  },
  {
    "location": "大安區",
    "address": "四維路    192巷",
    "lat": 25.027028,
    "lng": 121.547984
  },
  {
    "location": "大安區",
    "address": "建國南二段  瑞安街256巷(西)",
    "lat": 25.0277,
    "lng": 121.537435
  },
  {
    "location": "大安區",
    "address": "建國南二段  瑞安街256巷(東)",
    "lat": 25.0277,
    "lng": 121.537939
  },
  {
    "location": "大安區",
    "address": "復興南二段  125,128巷",
    "lat": 25.02921,
    "lng": 121.5435
  },
  {
    "location": "大安區",
    "address": "金華街    永康街",
    "lat": 25.029759,
    "lng": 121.529511
  },
  {
    "location": "大安區",
    "address": "四維路    170巷",
    "lat": 25.028151,
    "lng": 121.548012
  },
  {
    "location": "大安區",
    "address": "敦化南二段  81巷",
    "lat": 25.029922,
    "lng": 121.548771
  },
  {
    "location": "大安區",
    "address": "安和路二段  209巷",
    "lat": 25.026122,
    "lng": 121.549978
  },
  {
    "location": "大安區",
    "address": "樂利路    安和路二段171巷",
    "lat": 25.028156,
    "lng": 121.551122
  },
  {
    "location": "大安區",
    "address": "通化街    171巷",
    "lat": 25.028049,
    "lng": 121.553605
  },
  {
    "location": "大安區",
    "address": "新生南二段  青田街7巷",
    "lat": 25.028265,
    "lng": 121.534485
  },
  {
    "location": "大安區",
    "address": "復興南二段  210巷",
    "lat": 25.028414,
    "lng": 121.543469
  },
  {
    "location": "大安區",
    "address": "大安路二段  復興南路二段151巷",
    "lat": 25.028293,
    "lng": 121.545988
  },
  {
    "location": "大安區",
    "address": "樂利路11巷  通安街",
    "lat": 25.028286,
    "lng": 121.552641
  },
  {
    "location": "大安區",
    "address": "瑞安街    180巷",
    "lat": 25.028503,
    "lng": 121.541167
  },
  {
    "location": "大安區",
    "address": "潮州街    麗水街",
    "lat": 25.028563,
    "lng": 121.528296
  },
  {
    "location": "大安區",
    "address": "金山南二段  潮州街",
    "lat": 25.028859,
    "lng": 121.526293
  },
  {
    "location": "大安區",
    "address": "建國南二段  151巷 ",
    "lat": 25.02876,
    "lng": 121.537684
  },
  {
    "location": "大安區",
    "address": "信義路三段134巷 建國南二段151巷",
    "lat": 25.028721,
    "lng": 121.539371
  },
  {
    "location": "大安區",
    "address": "安和路二段  樂利路",
    "lat": 25.029019,
    "lng": 121.550775
  },
  {
    "location": "大安區",
    "address": "潮州街    59巷",
    "lat": 25.02921,
    "lng": 121.524217
  },
  {
    "location": "大安區",
    "address": "大安路二段  建安國小",
    "lat": 25.029373,
    "lng": 121.546018
  },
  {
    "location": "大安區",
    "address": "金華街    麗水街",
    "lat": 25.029866,
    "lng": 121.528504
  },
  {
    "location": "大安區",
    "address": "安和路二段       敦化南路二段81巷",
    "lat": 25.029838,
    "lng": 121.551645
  },
  {
    "location": "大安區",
    "address": "金華街    164巷",
    "lat": 25.02974,
    "lng": 121.530604
  },
  {
    "location": "大安區",
    "address": "敦化南二段81巷 45弄",
    "lat": 25.029917,
    "lng": 121.550454
  },
  {
    "location": "大安區",
    "address": "金山南二段  金華街",
    "lat": 25.030164,
    "lng": 121.526575
  },
  {
    "location": "大安區",
    "address": "金華街    青田街",
    "lat": 25.029992,
    "lng": 121.531558
  },
  {
    "location": "大安區",
    "address": "臨江街    通化街",
    "lat": 25.030198,
    "lng": 121.554199
  },
  {
    "location": "大安區",
    "address": "新生南二段  金華街",
    "lat": 25.030625,
    "lng": 121.533649
  },
  {
    "location": "大安區",
    "address": "建國南二段  79巷",
    "lat": 25.030863,
    "lng": 121.537763
  },
  {
    "location": "大安區",
    "address": "建國南二段  勝利加油站",
    "lat": 25.030713,
    "lng": 121.537522
  },
  {
    "location": "大安區",
    "address": "大安路二段  瑞安街23巷",
    "lat": 25.030999,
    "lng": 121.546071
  },
  {
    "location": "大安區",
    "address": "敦化南二段  63巷",
    "lat": 25.030959,
    "lng": 121.548778
  },
  {
    "location": "大安區",
    "address": "敦化南二段63巷 21弄",
    "lat": 25.030936,
    "lng": 121.550127
  },
  {
    "location": "大安區",
    "address": "敦化南二段63巷 53弄",
    "lat": 25.030922,
    "lng": 121.551546
  },
  {
    "location": "大安區",
    "address": "安和路二段  52,59巷",
    "lat": 25.030927,
    "lng": 121.552389
  },
  {
    "location": "大安區",
    "address": "文昌街    46號",
    "lat": 25.032845,
    "lng": 121.550134
  },
  {
    "location": "大安區",
    "address": "信義路三段134巷  建國南二段69巷",
    "lat": 25.031145,
    "lng": 121.539421
  },
  {
    "location": "大安區",
    "address": "復興南二段  78巷",
    "lat": 25.031063,
    "lng": 121.543542
  },
  {
    "location": "大安區",
    "address": "愛國東路   麗水街",
    "lat": 25.031377,
    "lng": 121.528778
  },
  {
    "location": "大安區",
    "address": "金山南二段  愛國東路",
    "lat": 25.03168,
    "lng": 121.526804
  },
  {
    "location": "大安區",
    "address": "安和路二段  文昌街",
    "lat": 25.032602,
    "lng": 121.552455
  },
  {
    "location": "大安區",
    "address": "愛國東路   中華電信",
    "lat": 25.031861,
    "lng": 121.5255
  },
  {
    "location": "大安區",
    "address": "愛國東路   21,210巷",
    "lat": 25.032087,
    "lng": 121.524102
  },
  {
    "location": "大安區",
    "address": "建國南二段  信義南側迴轉道(西)",
    "lat": 25.032309,
    "lng": 121.537545
  },
  {
    "location": "大安區",
    "address": "建國南二段  信義南側迴轉道(東)",
    "lat": 25.032295,
    "lng": 121.537988
  },
  {
    "location": "大安區",
    "address": "信義路四段186巷  安和路二段20巷",
    "lat": 25.032115,
    "lng": 121.551579
  },
  {
    "location": "大安區",
    "address": "信義路三段  建國南一段(西)",
    "lat": 25.033543,
    "lng": 121.537566
  },
  {
    "location": "大安區",
    "address": "信義路三段  建國南一段",
    "lat": 25.033488,
    "lng": 121.537575
  },
  {
    "location": "大安區",
    "address": "信義路三段  134巷",
    "lat": 25.033464,
    "lng": 121.53947
  },
  {
    "location": "大安區",
    "address": "信義路三段  166巷",
    "lat": 25.033394,
    "lng": 121.541876
  },
  {
    "location": "大安區",
    "address": "信義路三段  復興南一段",
    "lat": 25.033361,
    "lng": 121.543571
  },
  {
    "location": "大安區",
    "address": "信義路四段  大安路",
    "lat": 25.033316,
    "lng": 121.545939
  },
  {
    "location": "大安區",
    "address": "愛國東路   79巷",
    "lat": 25.031575,
    "lng": 121.527431
  },
  {
    "location": "大安區",
    "address": "信義路三段     43號",
    "lat": 25.033522,
    "lng": 121.535916
  },
  {
    "location": "大安區",
    "address": "四維路    76巷(單閃)",
    "lat": 25.034227,
    "lng": 121.548081
  },
  {
    "location": "大安區",
    "address": "建國南一段  341巷",
    "lat": 25.034466,
    "lng": 121.53782
  },
  {
    "location": "大安區",
    "address": "建國南一段  新生南一段161巷",
    "lat": 25.03451,
    "lng": 121.537616
  },
  {
    "location": "大安區",
    "address": "復興南一段  295巷",
    "lat": 25.035133,
    "lng": 121.543715
  },
  {
    "location": "大安區",
    "address": "延吉街    光復南路456巷",
    "lat": 25.035101,
    "lng": 121.555959
  },
  {
    "location": "大安區",
    "address": "延吉街    233巷",
    "lat": 25.036961,
    "lng": 121.55555
  },
  {
    "location": "大安區",
    "address": "安和路一段  109巷",
    "lat": 25.035398,
    "lng": 121.552527
  },
  {
    "location": "大安區",
    "address": "敦化南一段  295巷",
    "lat": 25.035565,
    "lng": 121.548811
  },
  {
    "location": "大安區",
    "address": "東豐街    四維路",
    "lat": 25.03598,
    "lng": 121.548101
  },
  {
    "location": "大安區",
    "address": "復興南一段  東豐街",
    "lat": 25.036069,
    "lng": 121.543622
  },
  {
    "location": "大安區",
    "address": "大安路一段  東豐街",
    "lat": 25.036015,
    "lng": 121.54599
  },
  {
    "location": "大安區",
    "address": "安和路一段  仁愛路四段266巷",
    "lat": 25.036222,
    "lng": 121.55247
  },
  {
    "location": "大安區",
    "address": "建國南一段  延平中學 ",
    "lat": 25.036354,
    "lng": 121.538252
  },
  {
    "location": "大安區",
    "address": "仁愛路三段  47號",
    "lat": 25.038476,
    "lng": 121.535581
  },
  {
    "location": "大安區",
    "address": "建國南一段  258巷",
    "lat": 25.036814,
    "lng": 121.53782
  },
  {
    "location": "大安區",
    "address": "仁愛路四段266巷 8弄",
    "lat": 25.037029,
    "lng": 121.552915
  },
  {
    "location": "大安區",
    "address": "大安路一段  敦化南一段270巷",
    "lat": 25.038971,
    "lng": 121.546052
  },
  {
    "location": "大安區",
    "address": "延吉街    160巷",
    "lat": 25.039378,
    "lng": 121.555028
  },
  {
    "location": "大安區",
    "address": "仁愛路四段  266巷",
    "lat": 25.037759,
    "lng": 121.552915
  },
  {
    "location": "大安區",
    "address": "仁愛路四段  延吉街",
    "lat": 25.037713,
    "lng": 121.555422
  },
  {
    "location": "大安區",
    "address": "仁愛路四段  大安路一段",
    "lat": 25.03796,
    "lng": 121.546042
  },
  {
    "location": "大安區",
    "address": "仁愛路四段  敦化南一段",
    "lat": 25.037837,
    "lng": 121.548813
  },
  {
    "location": "大安區",
    "address": "仁愛路四段  安和路一段",
    "lat": 25.037794,
    "lng": 121.551265
  },
  {
    "location": "大安區",
    "address": "辛亥路三段  第二殯儀館",
    "lat": 25.014532,
    "lng": 121.552397
  },
  {
    "location": "大安區",
    "address": "基隆路四段  羅斯福四段",
    "lat": 25.011191,
    "lng": 121.537169
  },
  {
    "location": "大安區",
    "address": "臥龍街    和平東路三段464巷",
    "lat": 25.016764,
    "lng": 121.559886
  },
  {
    "location": "大安區",
    "address": "羅斯福四段113巷  民族國中",
    "lat": 25.011287,
    "lng": 121.538846
  },
  {
    "location": "大安區",
    "address": "羅斯福四段113巷  基隆路四段41巷",
    "lat": 25.011351,
    "lng": 121.540947
  },
  {
    "location": "大安區",
    "address": "基隆路四段41巷68弄  6號(台科大宿舍門口)",
    "lat": 25.011518,
    "lng": 121.54134
  },
  {
    "location": "大安區",
    "address": "和平東三段  627,631巷",
    "lat": 25.013308,
    "lng": 121.563258
  },
  {
    "location": "大安區",
    "address": "基隆路四段41巷68弄  公館國小",
    "lat": 25.012491,
    "lng": 121.542792
  },
  {
    "location": "大安區",
    "address": "芳蘭路    基隆路三段155巷",
    "lat": 25.012523,
    "lng": 121.545093
  },
  {
    "location": "大安區",
    "address": "基隆路四段  144巷",
    "lat": 25.013107,
    "lng": 121.539508
  },
  {
    "location": "大安區",
    "address": "臥龍街    富陽街157巷",
    "lat": 25.017776,
    "lng": 121.557879
  },
  {
    "location": "大安區",
    "address": "基隆路四段  科技大學",
    "lat": 25.013859,
    "lng": 121.540424
  },
  {
    "location": "大安區",
    "address": "辛亥路三段  停車場",
    "lat": 25.014755,
    "lng": 121.552577
  },
  {
    "location": "大安區",
    "address": "和平東三段  632,636巷",
    "lat": 25.012913,
    "lng": 121.563391
  },
  {
    "location": "大安區",
    "address": "辛亥路三段  284巷",
    "lat": 25.015202,
    "lng": 121.551315
  },
  {
    "location": "大安區",
    "address": "芳蘭路    長興街(自來水廠)",
    "lat": 25.014972,
    "lng": 121.547438
  },
  {
    "location": "大安區",
    "address": "基隆路三段     156,155巷",
    "lat": 25.015723,
    "lng": 121.542571
  },
  {
    "location": "大安區",
    "address": "辛亥路三段  青峰里公園",
    "lat": 25.015438,
    "lng": 121.551489
  },
  {
    "location": "大安區",
    "address": "和平東三段  530巷",
    "lat": 25.01534,
    "lng": 121.561261
  },
  {
    "location": "大安區",
    "address": "和平東三段  596,599號",
    "lat": 25.014146,
    "lng": 121.562351
  },
  {
    "location": "大安區",
    "address": "新生南三段  98巷",
    "lat": 25.016994,
    "lng": 121.533283
  },
  {
    "location": "大安區",
    "address": "辛亥路三段  157巷",
    "lat": 25.017009,
    "lng": 121.549037
  },
  {
    "location": "大安區",
    "address": "基隆路三段  長興街",
    "lat": 25.017189,
    "lng": 121.544312
  },
  {
    "location": "大安區",
    "address": "和平東三段  463巷(入城)",
    "lat": 25.018487,
    "lng": 121.558963
  },
  {
    "location": "大安區",
    "address": "和平東三段308巷  臥龍街",
    "lat": 25.018681,
    "lng": 121.5545
  },
  {
    "location": "大安區",
    "address": "新生南三段  86巷",
    "lat": 25.018697,
    "lng": 121.533687
  },
  {
    "location": "大安區",
    "address": "安居街    樂業街",
    "lat": 25.019673,
    "lng": 121.553456
  },
  {
    "location": "大安區",
    "address": "和平東三段  464,509巷",
    "lat": 25.0171,
    "lng": 121.560156
  },
  {
    "location": "大安區",
    "address": "和平東三段  391巷",
    "lat": 25.019707,
    "lng": 121.557593
  },
  {
    "location": "大安區",
    "address": "和平東三段  406巷",
    "lat": 25.018791,
    "lng": 121.558481
  },
  {
    "location": "大安區",
    "address": "師大路    105巷",
    "lat": 25.022542,
    "lng": 121.528385
  },
  {
    "location": "大安區",
    "address": "新生南三段  56巷",
    "lat": 25.020362,
    "lng": 121.533959
  },
  {
    "location": "大安區",
    "address": "樂業街    臥龍街151巷",
    "lat": 25.020335,
    "lng": 121.552675
  },
  {
    "location": "大安區",
    "address": "師大路    39巷",
    "lat": 25.024635,
    "lng": 121.528547
  },
  {
    "location": "大安區",
    "address": "和平東三段  富陽街",
    "lat": 25.020722,
    "lng": 121.556518
  },
  {
    "location": "大安區",
    "address": "辛亥路二段  復興南二段",
    "lat": 25.021282,
    "lng": 121.54334
  },
  {
    "location": "大安區",
    "address": "和平東二段76巷30弄    龍門國中後門",
    "lat": 25.023855,
    "lng": 121.539532
  },
  {
    "location": "大安區",
    "address": "基隆路三段  敦化南二段",
    "lat": 25.02087,
    "lng": 121.548447
  },
  {
    "location": "大安區",
    "address": "辛亥路二段  171巷",
    "lat": 25.021317,
    "lng": 121.54106
  },
  {
    "location": "大安區",
    "address": "復興南二段  340巷",
    "lat": 25.02265,
    "lng": 121.543371
  },
  {
    "location": "大安區",
    "address": "和平東三段  安居街 ",
    "lat": 25.021517,
    "lng": 121.555527
  },
  {
    "location": "大安區",
    "address": "辛亥路一段  泰順街",
    "lat": 25.0218,
    "lng": 121.531716
  },
  {
    "location": "大安區",
    "address": "辛亥路二段  建國南二段(南側)",
    "lat": 25.022116,
    "lng": 121.537465
  },
  {
    "location": "大安區",
    "address": "辛亥路一段  139巷",
    "lat": 25.022431,
    "lng": 121.532545
  },
  {
    "location": "大安區",
    "address": "辛亥路一段  溫州街",
    "lat": 25.022408,
    "lng": 121.533197
  },
  {
    "location": "大安區",
    "address": "辛亥路一段  新生南三段",
    "lat": 25.022457,
    "lng": 121.534448
  },
  {
    "location": "大安區",
    "address": "辛亥路二段  建國南二段",
    "lat": 25.022645,
    "lng": 121.537786
  },
  {
    "location": "大安區",
    "address": "基隆路三段  樂業街",
    "lat": 25.02234,
    "lng": 121.55025
  },
  {
    "location": "大安區",
    "address": "和平東三段  信安街",
    "lat": 25.022387,
    "lng": 121.554629
  },
  {
    "location": "大安區",
    "address": "復興南二段  337,308巷",
    "lat": 25.023548,
    "lng": 121.543395
  },
  {
    "location": "大安區",
    "address": "基隆路    樂利路",
    "lat": 25.024708,
    "lng": 121.552389
  },
  {
    "location": "大安區",
    "address": "新生南三段  22巷",
    "lat": 25.023995,
    "lng": 121.534602
  },
  {
    "location": "大安區",
    "address": "臥龍街    敦化南二段200巷",
    "lat": 25.022896,
    "lng": 121.546875
  },
  {
    "location": "大安區",
    "address": "和平東三段  嘉興街",
    "lat": 25.023021,
    "lng": 121.553949
  },
  {
    "location": "大安區",
    "address": "師大路    80巷",
    "lat": 25.023272,
    "lng": 121.528468
  },
  {
    "location": "大安區",
    "address": "建國南一段     65巷",
    "lat": 25.043916,
    "lng": 121.536887
  },
  {
    "location": "大安區",
    "address": "和平東三段  基隆路二段",
    "lat": 25.024401,
    "lng": 121.552528
  },
  {
    "location": "大安區",
    "address": "和平東三段  敦化南二段",
    "lat": 25.024577,
    "lng": 121.548716
  },
  {
    "location": "大安區",
    "address": "和平東三段  安和路二段",
    "lat": 25.024475,
    "lng": 121.550332
  },
  {
    "location": "大安區",
    "address": "和平東三段  臥龍街",
    "lat": 25.024617,
    "lng": 121.546679
  },
  {
    "location": "大安區",
    "address": "和平東二段  復興南二段",
    "lat": 25.024857,
    "lng": 121.543404
  },
  {
    "location": "大安區",
    "address": "樂利路    45巷",
    "lat": 25.026618,
    "lng": 121.551695
  },
  {
    "location": "大安區",
    "address": "和平東二段     175巷",
    "lat": 25.02507,
    "lng": 121.541763
  },
  {
    "location": "大安區",
    "address": "安和路二段  227巷",
    "lat": 25.025375,
    "lng": 121.550143
  },
  {
    "location": "大安區",
    "address": "和平東二段  107巷",
    "lat": 25.025293,
    "lng": 121.540255
  },
  {
    "location": "大安區",
    "address": "和平東二段  瑞安街",
    "lat": 25.025478,
    "lng": 121.538819
  },
  {
    "location": "大安區",
    "address": "和平東二段  建國南二段",
    "lat": 25.025636,
    "lng": 121.537651
  },
  {
    "location": "大安區",
    "address": "樂利路    通化街",
    "lat": 25.025854,
    "lng": 121.55196
  },
  {
    "location": "大安區",
    "address": "和平東一段  新生南二段",
    "lat": 25.026025,
    "lng": 121.534848
  },
  {
    "location": "大安區",
    "address": "和平東一段  溫州街",
    "lat": 25.026136,
    "lng": 121.533606
  },
  {
    "location": "大安區",
    "address": "復興南二段  160,171巷",
    "lat": 25.027767,
    "lng": 121.543466
  },
  {
    "location": "大安區",
    "address": "和平東一段  泰順街",
    "lat": 25.026317,
    "lng": 121.53158
  },
  {
    "location": "大安區",
    "address": "和平東一段     師大路",
    "lat": 25.026573,
    "lng": 121.5285
  },
  {
    "location": "大安區",
    "address": "和平東一段     141巷",
    "lat": 25.026439,
    "lng": 121.530397
  },
  {
    "location": "大安區",
    "address": "復興南二段     148,151巷",
    "lat": 25.02838,
    "lng": 121.543497
  },
  {
    "location": "大安區",
    "address": "和平東一段  師大大門",
    "lat": 25.026577,
    "lng": 121.528496
  },
  {
    "location": "大安區",
    "address": "和平東二段  311巷(國立台北教育大學)",
    "lat": 25.0247,
    "lng": 121.545113
  },
  {
    "location": "大安區",
    "address": "和平東一段  金山南二段",
    "lat": 25.026789,
    "lng": 121.525894
  },
  {
    "location": "大安區",
    "address": "復興南二段148巷 開平中學",
    "lat": 25.028425,
    "lng": 121.542355
  },
  {
    "location": "大安區",
    "address": "敦化南二段     安和路二段171巷",
    "lat": 25.028082,
    "lng": 121.548763
  },
  {
    "location": "大安區",
    "address": "和平東一段     41巷",
    "lat": 25.026941,
    "lng": 121.523927
  },
  {
    "location": "大安區",
    "address": "安和路二段  189巷",
    "lat": 25.026916,
    "lng": 121.549835
  },
  {
    "location": "大安區",
    "address": "敦化南二段     200巷",
    "lat": 25.022798,
    "lng": 121.548725
  },
  {
    "location": "大安區",
    "address": "四維路    192巷",
    "lat": 25.027028,
    "lng": 121.547984
  },
  {
    "location": "大安區",
    "address": "建國南二段  瑞安街256巷(西)",
    "lat": 25.0277,
    "lng": 121.537435
  },
  {
    "location": "大安區",
    "address": "建國南二段  瑞安街256巷(東)",
    "lat": 25.0277,
    "lng": 121.537939
  },
  {
    "location": "大安區",
    "address": "復興南二段  125,128巷",
    "lat": 25.02921,
    "lng": 121.5435
  },
  {
    "location": "大安區",
    "address": "金華街    永康街",
    "lat": 25.029759,
    "lng": 121.529511
  },
  {
    "location": "大安區",
    "address": "四維路    170巷",
    "lat": 25.028151,
    "lng": 121.548012
  },
  {
    "location": "大安區",
    "address": "敦化南二段  81巷",
    "lat": 25.029922,
    "lng": 121.548771
  },
  {
    "location": "大安區",
    "address": "安和路二段  209巷",
    "lat": 25.026122,
    "lng": 121.549978
  },
  {
    "location": "大安區",
    "address": "樂利路    安和路二段171巷",
    "lat": 25.028156,
    "lng": 121.551122
  },
  {
    "location": "大安區",
    "address": "通化街    171巷",
    "lat": 25.028049,
    "lng": 121.553605
  },
  {
    "location": "大安區",
    "address": "新生南二段  青田街7巷",
    "lat": 25.028265,
    "lng": 121.534485
  },
  {
    "location": "大安區",
    "address": "復興南二段  210巷",
    "lat": 25.028414,
    "lng": 121.543469
  },
  {
    "location": "大安區",
    "address": "大安路二段  復興南路二段151巷",
    "lat": 25.028293,
    "lng": 121.545988
  },
  {
    "location": "大安區",
    "address": "樂利路11巷  通安街",
    "lat": 25.028286,
    "lng": 121.552641
  },
  {
    "location": "大安區",
    "address": "瑞安街    180巷",
    "lat": 25.028503,
    "lng": 121.541167
  },
  {
    "location": "大安區",
    "address": "潮州街    麗水街",
    "lat": 25.028563,
    "lng": 121.528296
  },
  {
    "location": "大安區",
    "address": "金山南二段  潮州街",
    "lat": 25.028859,
    "lng": 121.526293
  },
  {
    "location": "大安區",
    "address": "建國南二段  151巷 ",
    "lat": 25.02876,
    "lng": 121.537684
  },
  {
    "location": "大安區",
    "address": "信義路三段134巷 建國南二段151巷",
    "lat": 25.028721,
    "lng": 121.539371
  },
  {
    "location": "大安區",
    "address": "安和路二段  樂利路",
    "lat": 25.029019,
    "lng": 121.550775
  },
  {
    "location": "大安區",
    "address": "潮州街    59巷",
    "lat": 25.02921,
    "lng": 121.524217
  },
  {
    "location": "大安區",
    "address": "大安路二段  建安國小",
    "lat": 25.029373,
    "lng": 121.546018
  },
  {
    "location": "大安區",
    "address": "金華街    麗水街",
    "lat": 25.029866,
    "lng": 121.528504
  },
  {
    "location": "大安區",
    "address": "安和路二段       敦化南路二段81巷",
    "lat": 25.029838,
    "lng": 121.551645
  },
  {
    "location": "大安區",
    "address": "金華街    164巷",
    "lat": 25.02974,
    "lng": 121.530604
  },
  {
    "location": "大安區",
    "address": "敦化南二段81巷 45弄",
    "lat": 25.029917,
    "lng": 121.550454
  },
  {
    "location": "大安區",
    "address": "金山南二段  金華街",
    "lat": 25.030164,
    "lng": 121.526575
  },
  {
    "location": "大安區",
    "address": "金華街    青田街",
    "lat": 25.029992,
    "lng": 121.531558
  },
  {
    "location": "大安區",
    "address": "臨江街    通化街",
    "lat": 25.030198,
    "lng": 121.554199
  },
  {
    "location": "大安區",
    "address": "新生南二段  金華街",
    "lat": 25.030625,
    "lng": 121.533649
  },
  {
    "location": "大安區",
    "address": "建國南二段  79巷",
    "lat": 25.030863,
    "lng": 121.537763
  },
  {
    "location": "大安區",
    "address": "建國南二段  勝利加油站",
    "lat": 25.030713,
    "lng": 121.537522
  },
  {
    "location": "大安區",
    "address": "大安路二段  瑞安街23巷",
    "lat": 25.030999,
    "lng": 121.546071
  },
  {
    "location": "大安區",
    "address": "敦化南二段  63巷",
    "lat": 25.030959,
    "lng": 121.548778
  },
  {
    "location": "大安區",
    "address": "敦化南二段63巷 21弄",
    "lat": 25.030936,
    "lng": 121.550127
  },
  {
    "location": "大安區",
    "address": "敦化南二段63巷 53弄",
    "lat": 25.030922,
    "lng": 121.551546
  },
  {
    "location": "大安區",
    "address": "安和路二段  52,59巷",
    "lat": 25.030927,
    "lng": 121.552389
  },
  {
    "location": "大安區",
    "address": "文昌街    46號",
    "lat": 25.032845,
    "lng": 121.550134
  },
  {
    "location": "大安區",
    "address": "信義路三段134巷  建國南二段69巷",
    "lat": 25.031145,
    "lng": 121.539421
  },
  {
    "location": "大安區",
    "address": "復興南二段  78巷",
    "lat": 25.031063,
    "lng": 121.543542
  },
  {
    "location": "大安區",
    "address": "愛國東路   麗水街",
    "lat": 25.031377,
    "lng": 121.528778
  },
  {
    "location": "大安區",
    "address": "金山南二段  愛國東路",
    "lat": 25.03168,
    "lng": 121.526804
  },
  {
    "location": "大安區",
    "address": "安和路二段  文昌街",
    "lat": 25.032602,
    "lng": 121.552455
  },
  {
    "location": "大安區",
    "address": "愛國東路   中華電信",
    "lat": 25.031861,
    "lng": 121.5255
  },
  {
    "location": "大安區",
    "address": "愛國東路   21,210巷",
    "lat": 25.032087,
    "lng": 121.524102
  },
  {
    "location": "大安區",
    "address": "建國南二段  信義南側迴轉道(西)",
    "lat": 25.032309,
    "lng": 121.537545
  },
  {
    "location": "大安區",
    "address": "建國南二段  信義南側迴轉道(東)",
    "lat": 25.032295,
    "lng": 121.537988
  },
  {
    "location": "大安區",
    "address": "四維路    154巷",
    "lat": 25.030971,
    "lng": 121.547988
  },
  {
    "location": "大安區",
    "address": "信義路四段186巷  安和路二段20巷",
    "lat": 25.032115,
    "lng": 121.551579
  },
  {
    "location": "大安區",
    "address": "通化街    文昌街",
    "lat": 25.032425,
    "lng": 121.554284
  },
  {
    "location": "大安區",
    "address": "文昌街    信義路四段186巷",
    "lat": 25.032686,
    "lng": 121.551576
  },
  {
    "location": "大安區",
    "address": "安和路一段  90巷",
    "lat": 25.034652,
    "lng": 121.552515
  },
  {
    "location": "大安區",
    "address": "復興南二段  瑞安街",
    "lat": 25.032827,
    "lng": 121.543667
  },
  {
    "location": "大安區",
    "address": "信義路四段  敦化南一段",
    "lat": 25.033277,
    "lng": 121.548775
  },
  {
    "location": "大安區",
    "address": "信義路四段  186巷 ",
    "lat": 25.033196,
    "lng": 121.551587
  },
  {
    "location": "大安區",
    "address": "信義路四段  安和路一段",
    "lat": 25.033174,
    "lng": 121.552448
  },
  {
    "location": "大安區",
    "address": "文昌街    通安街",
    "lat": 25.032515,
    "lng": 121.553335
  },
  {
    "location": "大安區",
    "address": "信義路四段  通化街",
    "lat": 25.033137,
    "lng": 121.554285
  },
  {
    "location": "大安區",
    "address": "金山南二段  31巷",
    "lat": 25.033,
    "lng": 121.527072
  },
  {
    "location": "大安區",
    "address": "信義路三段  建國南一段(西)",
    "lat": 25.033543,
    "lng": 121.537566
  },
  {
    "location": "大安區",
    "address": "信義路三段  建國南一段",
    "lat": 25.033488,
    "lng": 121.537575
  },
  {
    "location": "大安區",
    "address": "信義路三段  134巷",
    "lat": 25.033464,
    "lng": 121.53947
  },
  {
    "location": "大安區",
    "address": "信義路三段  166巷",
    "lat": 25.033394,
    "lng": 121.541876
  },
  {
    "location": "大安區",
    "address": "信義路三段  復興南一段",
    "lat": 25.033361,
    "lng": 121.543571
  },
  {
    "location": "大安區",
    "address": "信義路四段  大安路",
    "lat": 25.033316,
    "lng": 121.545939
  },
  {
    "location": "大安區",
    "address": "愛國東路   79巷",
    "lat": 25.031575,
    "lng": 121.527431
  },
  {
    "location": "大安區",
    "address": "信義路三段     43號",
    "lat": 25.033522,
    "lng": 121.535916
  },
  {
    "location": "大安區",
    "address": "四維路    76巷(單閃)",
    "lat": 25.034227,
    "lng": 121.548081
  },
  {
    "location": "大安區",
    "address": "建國南一段  341巷",
    "lat": 25.034466,
    "lng": 121.53782
  },
  {
    "location": "大安區",
    "address": "建國南一段  新生南一段161巷",
    "lat": 25.03451,
    "lng": 121.537616
  },
  {
    "location": "大安區",
    "address": "復興南一段  295巷",
    "lat": 25.035133,
    "lng": 121.543715
  },
  {
    "location": "大安區",
    "address": "延吉街    光復南路456巷",
    "lat": 25.035101,
    "lng": 121.555959
  },
  {
    "location": "大安區",
    "address": "延吉街    233巷",
    "lat": 25.036961,
    "lng": 121.55555
  },
  {
    "location": "大安區",
    "address": "安和路一段  109巷",
    "lat": 25.035398,
    "lng": 121.552527
  },
  {
    "location": "大安區",
    "address": "敦化南一段  295巷",
    "lat": 25.035565,
    "lng": 121.548811
  },
  {
    "location": "大安區",
    "address": "東豐街    四維路",
    "lat": 25.03598,
    "lng": 121.548101
  },
  {
    "location": "大安區",
    "address": "復興南一段  東豐街",
    "lat": 25.036069,
    "lng": 121.543622
  },
  {
    "location": "大安區",
    "address": "大安路一段  東豐街",
    "lat": 25.036015,
    "lng": 121.54599
  },
  {
    "location": "大安區",
    "address": "安和路一段  仁愛路四段266巷",
    "lat": 25.036222,
    "lng": 121.55247
  },
  {
    "location": "大安區",
    "address": "建國南一段  延平中學 ",
    "lat": 25.036354,
    "lng": 121.538252
  },
  {
    "location": "大安區",
    "address": "仁愛路三段  47號",
    "lat": 25.038476,
    "lng": 121.535581
  },
  {
    "location": "大安區",
    "address": "建國南一段  258巷",
    "lat": 25.036814,
    "lng": 121.53782
  },
  {
    "location": "大安區",
    "address": "仁愛路四段266巷 8弄",
    "lat": 25.037029,
    "lng": 121.552915
  },
  {
    "location": "大安區",
    "address": "大安路一段  敦化南一段270巷",
    "lat": 25.038971,
    "lng": 121.546052
  },
  {
    "location": "大安區",
    "address": "延吉街    160巷",
    "lat": 25.039378,
    "lng": 121.555028
  },
  {
    "location": "大安區",
    "address": "仁愛路四段  266巷",
    "lat": 25.037759,
    "lng": 121.552915
  },
  {
    "location": "大安區",
    "address": "仁愛路四段  延吉街",
    "lat": 25.037713,
    "lng": 121.555422
  },
  {
    "location": "大安區",
    "address": "仁愛路四段  大安路一段",
    "lat": 25.03796,
    "lng": 121.546042
  },
  {
    "location": "大安區",
    "address": "仁愛路四段  敦化南一段",
    "lat": 25.037837,
    "lng": 121.548813
  },
  {
    "location": "大安區",
    "address": "仁愛路四段  安和路一段",
    "lat": 25.037794,
    "lng": 121.551265
  },
  {
    "location": "松山區",
    "address": "八德路/松信路(西南側)",
    "lat": 25.049845,
    "lng": 121.571885,
    "country": "台北市"
  },
  {
    "location": "松山區",
    "address": "光復北路/民生東路(西北側)",
    "lat": 25.05862,
    "lng": 121.55514,
    "country": "台北市"
  },
  {
    "location": "松山區",
    "address": "北寧路34號對側(鄰近台北田徑場)",
    "lat": 25.049408,
    "lng": 121.55261,
    "country": "台北市"
  },
  {
    "location": "松山區",
    "address": "敦化民生路口公車站旁",
    "lat": 25.057985,
    "lng": 121.548982,
    "country": "台北市"
  },
  {
    "location": "松山區",
    "address": "八德路四段91巷(中崙高中)旁(鄰近京華城/中保寶貝城(BabyBossCity))",
    "lat": 25.04878,
    "lng": 121.56087,
    "country": "台北市"
  },
  {
    "location": "松山區",
    "address": "民權東路四段/新中街交叉口",
    "lat": 25.062002,
    "lng": 121.560186,
    "country": "台北市"
  },
  {
    "location": "松山區",
    "address": "敦化北路3號(鄰近臺北小巨蛋/台北田徑場)",
    "lat": 25.049505,
    "lng": 121.549408,
    "country": "台北市"
  },
  {
    "location": "松山區",
    "address": "民生東路五段/三民路口(西北側)(鄰近松山親子館)",
    "lat": 25.059147,
    "lng": 121.56297,
    "country": "台北市"
  },
  {
    "location": "松山區",
    "address": "復興北路/民權東路三段(東北側)",
    "lat": 25.062344,
    "lng": 121.545138,
    "country": "台北市"
  },
  {
    "location": "松山區",
    "address": "撫遠街/富錦街(東南側)",
    "lat": 25.061567,
    "lng": 121.566558,
    "country": "台北市"
  },
  {
    "location": "松山區",
    "address": "民生東路五段/塔悠路(西南側)",
    "lat": 25.059245,
    "lng": 121.568883,
    "country": "台北市"
  },
  {
    "location": "松山區",
    "address": "南京東路五段/三民路(西北側)",
    "lat": 25.051562,
    "lng": 121.562891,
    "country": "台北市"
  },
  {
    "location": "松山區",
    "address": "南京東路四段/健康路(東北側)(鄰近台北田徑場)",
    "lat": 25.051702,
    "lng": 121.553057,
    "country": "台北市"
  },
  {
    "location": "松山區",
    "address": "南京東路三段/南京東路三段256巷(東南側)",
    "lat": 25.051618,
    "lng": 121.544847,
    "country": "台北市"
  },
  {
    "location": "松山區",
    "address": "八德路/松信路(西南側)",
    "lat": 25.049845,
    "lng": 121.571885,
    "country": "台北市"
  },
  {
    "location": "松山區",
    "address": "八德路二段342號東側人行道(鄰近微風廣場/黑松世界)",
    "lat": 25.047805,
    "lng": 121.545022,
    "country": "台北市"
  },
  {
    "location": "松山區",
    "address": "市民大道五段193號前方人行道(鄰近台北機廠)",
    "lat": 25.04846,
    "lng": 121.565928,
    "country": "台北市"
  },
  {
    "location": "松山區",
    "address": "光復南路23號對面人行道",
    "lat": 25.046914,
    "lng": 121.557674,
    "country": "台北市"
  },
  {
    "location": "松山區",
    "address": "健康路177號前人行道(健康新城)",
    "lat": 25.054095,
    "lng": 121.560928,
    "country": "台北市"
  },
  {
    "location": "松山區",
    "address": "松山路/市民大道六段(西北側捷運3號出口)(鄰近饒河街夜市/彩虹橋)",
    "lat": 25.049616,
    "lng": 121.577459,
    "country": "台北市"
  },
  {
    "location": "松山區",
    "address": "敦化北路/富錦街口(東北側)",
    "lat": 25.060746,
    "lng": 121.550711,
    "country": "台北市"
  },
  {
    "location": "松山區",
    "address": "健康路325巷/健康路325巷12弄口(東北側)",
    "lat": 25.055672,
    "lng": 121.567127,
    "country": "台北市"
  },
  {
    "location": "松山區",
    "address": "光復北路/光復北路190巷口(東南側)",
    "lat": 25.05447,
    "lng": 121.556098,
    "country": "台北市"
  },
  {
    "location": "松山區",
    "address": "敦化北路/敦化北路120巷口(西南側)(鄰近臺北小巨蛋)",
    "lat": 25.053614,
    "lng": 121.54872,
    "country": "台北市"
  },
  {
    "location": "松山區",
    "address": "敦化北路244巷/民權東路三段160巷口(西南側)",
    "lat": 25.060911,
    "lng": 121.54763,
    "country": "台北市"
  },
  {
    "location": "松山區",
    "address": "南京東路五段204號(前方)",
    "lat": 25.051287,
    "lng": 121.564262,
    "country": "台北市"
  },
  {
    "location": "松山區",
    "address": "八德路四段106巷6弄2號(東側)(鄰近京華城/中保寶貝城(BabyBossCity)/台北機廠)",
    "lat": 25.047428,
    "lng": 121.561182,
    "country": "台北市"
  },
  {
    "location": "松山區",
    "address": "南京東路四段182號(北側)",
    "lat": 25.05143,
    "lng": 121.55716,
    "country": "台北市"
  },
  {
    "location": "松山區",
    "address": "民生東路五段82號(東側)",
    "lat": 25.05794,
    "lng": 121.55945,
    "country": "台北市"
  },
  {
    "location": "松山區",
    "address": "三民路41號(東側)",
    "lat": 25.05601,
    "lng": 121.56358,
    "country": "台北市"
  },
  {
    "location": "松山區",
    "address": "市民大道四段63號(鄰近微風廣場/黑松世界)",
    "lat": 25.04525,
    "lng": 121.546635,
    "country": "台北市"
  },
  {
    "location": "松山區",
    "address": "塔悠路/撫遠街389巷口(南側)",
    "lat": 25.064713,
    "lng": 121.567899,
    "country": "台北市"
  },
  {
    "location": "松山區",
    "address": "長春路339巷/復興北路189巷口",
    "lat": 25.05491,
    "lng": 121.5448,
    "country": "台北市"
  },
  {
    "location": "松山區",
    "address": "南京東路五段/東興路口(北側)",
    "lat": 25.051489,
    "lng": 121.565347,
    "country": "台北市"
  },
  {
    "location": "松山區",
    "address": "三民路/新東街51巷口(東側)(鄰近松山親子館)",
    "lat": 25.061501,
    "lng": 121.563318,
    "country": "台北市"
  },
  {
    "location": "松山區",
    "address": "臺北市富錦街389巷12弄18號",
    "lat": 25.061298,
    "lng": 121.558354,
    "country": "臺北市"
  },
  {
    "location": "松山區",
    "address": "臺北市松山區民權國小旁",
    "lat": 25.061278,
    "lng": 121.558267,
    "country": "臺北市"
  },
  {
    "location": "松山區",
    "address": "臺北市八德路4段742號",
    "lat": 25.050361,
    "lng": 121.578119,
    "country": "臺北市"
  },
  {
    "location": "松山區",
    "address": "台北市松山區撫遠街298號",
    "lat": 25.06179,
    "lng": 121.56765,
    "country": "臺北市"
  },
  {
    "location": "松山區",
    "address": "臺北市松山區撫遠街298號對面",
    "lat": 25.061379,
    "lng": 121.56675,
    "country": "臺北市"
  },
  {
    "location": "松山區",
    "address": "八德路三段與敦化北路",
    "lat": 25.0484,
    "lng": 121.55008,
    "country": "臺北市"
  },
  {
    "location": "松山區",
    "address": "台北市民生東路4段133號",
    "lat": 25.058341,
    "lng": 121.554839,
    "country": "臺北市"
  },
  {
    "location": "松山區",
    "address": "臺北市南京東路4段2號",
    "lat": 25.05115,
    "lng": 121.55023,
    "country": "臺北市"
  },
  {
    "location": "松山區",
    "address": "台北市民生東路5段36巷4弄17號",
    "lat": 25.057544,
    "lng": 121.557821,
    "country": "臺北市"
  },
  {
    "location": "松山區",
    "address": "台北市松山區新東街41之7號",
    "lat": 25.060523,
    "lng": 121.565426,
    "country": "臺北市"
  },
  {
    "location": "松山區",
    "address": "臺北市松山區八德路3段12巷52弄3號對面",
    "lat": 25.046403,
    "lng": 121.550507,
    "country": "臺北市"
  },
  {
    "location": "松山區",
    "address": "臺北市松山區八德路3段與延吉街交口",
    "lat": 25.0479,
    "lng": 121.55351,
    "country": "臺北市"
  },
  {
    "location": "松山區",
    "address": "臺北市松山區寶清街111巷40號",
    "lat": 25.05411,
    "lng": 121.56894,
    "country": "臺北市"
  },
  {
    "location": "松山區",
    "address": "臺北市松山區寶寶清街30巷22號",
    "lat": 25.052155,
    "lng": 121.567676,
    "country": "臺北市"
  },
  {
    "location": "松山區",
    "address": "臺北市松山區南京東路5段251１巷50弄13號",
    "lat": 25.053873,
    "lng": 121.564043,
    "country": "臺北市"
  },
  {
    "location": "松山區",
    "address": "臺北市松山區民權東路3段160巷15號",
    "lat": 25.060756,
    "lng": 121.547639,
    "country": "臺北市"
  },
  {
    "location": "松山區",
    "address": "臺北市松山區敦化北路4巷",
    "lat": 25.04999,
    "lng": 121.54596,
    "country": "臺北市"
  },
  {
    "location": "松山區",
    "address": "臺北市松山區慶城街16巷7號對面",
    "lat": 25.05324,
    "lng": 121.54617,
    "country": "臺北市"
  },
  {
    "location": "松山區",
    "address": "臺北市松山區健康路325巷12弄28號左前方",
    "lat": 25.05568,
    "lng": 121.56855,
    "country": "臺北市"
  },
  {
    "location": "松山區",
    "address": "臺北市松山區民生東路5段與撫遠街交口附近",
    "lat": 25.05902,
    "lng": 121.56834,
    "country": "臺北市"
  },
  {
    "location": "松山區",
    "address": "臺北市松山區寧安街60巷1號對面",
    "lat": 25.05075,
    "lng": 121.55482,
    "country": "臺北市"
  },
  {
    "location": "松山區",
    "address": "臺北市光復北路266號3樓",
    "lat": 25.059163,
    "lng": 121.554683,
    "country": "臺北市"
  },
  {
    "location": "松山區",
    "address": "臺北市光復北路266號2樓",
    "lat": 25.059392,
    "lng": 121.554656,
    "country": "臺北市"
  },
  {
    "location": "松山區",
    "address": "台北市松山區民權東路5段41-1號",
    "lat": 25.064631,
    "lng": 121.567659,
    "country": "臺北市"
  },
  {
    "location": "松山區",
    "address": "松河街    221巷",
    "lat": 25.0513871,
    "lng": 121.5766131
  },
  {
    "location": "松山區",
    "address": "松河街    221巷",
    "lat": 25.0513871,
    "lng": 121.5766131
  },
  {
    "location": "中山區",
    "address": "五常街/龍江路口(西南側)(鄰近榮星公園(原榮星花園))",
    "lat": 25.06424,
    "lng": 121.54037,
    "country": "台北市"
  },
  {
    "location": "中山區",
    "address": "捷運行天宮1號出口後方(松江路側)",
    "lat": 25.058369,
    "lng": 121.532934,
    "country": "台北市"
  },
  {
    "location": "中山區",
    "address": "捷運行天宮站3號出口站外",
    "lat": 25.059978,
    "lng": 121.533302,
    "country": "台北市"
  },
  {
    "location": "中山區",
    "address": "建國北路/農安街口(中油旁邊空地)(鄰近榮星公園(原榮星花園))",
    "lat": 25.065031,
    "lng": 121.536775,
    "country": "台北市"
  },
  {
    "location": "中山區",
    "address": "建國北路/長春路口(北側)",
    "lat": 25.054761,
    "lng": 121.536925,
    "country": "台北市"
  },
  {
    "location": "中山區",
    "address": "建國南路一段/市民大道交叉口(北側)(鄰近國立台北科技大學)",
    "lat": 25.044781,
    "lng": 121.536609,
    "country": "台北市"
  },
  {
    "location": "中山區",
    "address": "林森北路/南京東路一段(鄰近林森公園/康樂公園)",
    "lat": 25.052227,
    "lng": 121.525805,
    "country": "台北市"
  },
  {
    "location": "中山區",
    "address": "松江路/農安街口(鄰近行天宮)",
    "lat": 25.064317,
    "lng": 121.533487,
    "country": "台北市"
  },
  {
    "location": "中山區",
    "address": "新生北路一段/長安東路二段交叉口(北側)",
    "lat": 25.048611,
    "lng": 121.529346,
    "country": "台北市"
  },
  {
    "location": "中山區",
    "address": "新生北路二段/新生北路二段68巷交叉口(新生橋下)",
    "lat": 25.056387,
    "lng": 121.527522,
    "country": "台北市"
  },
  {
    "location": "中山區",
    "address": "中山北路三段/酒泉街(西南側)(鄰近台北市立美術館/花博公園美術園區/台北故事館/花博公園圓山園區/花博圓山公園區-爭艷館/中山親子館)",
    "lat": 25.070629,
    "lng": 121.523268,
    "country": "台北市"
  },
  {
    "location": "中山區",
    "address": "吉林路/民族東路(北側)(鄰近林安泰古厝/花博公園新生園區)",
    "lat": 25.071606,
    "lng": 121.530805,
    "country": "台北市"
  },
  {
    "location": "中山區",
    "address": "敬業二路/植福路(東北側)(鄰近美麗華百樂園/劍潭古寺)",
    "lat": 25.08418,
    "lng": 121.555116,
    "country": "台北市"
  },
  {
    "location": "中山區",
    "address": "龍江路110號對面停車場",
    "lat": 25.05298,
    "lng": 121.540568,
    "country": "台北市"
  },
  {
    "location": "中山區",
    "address": "民權東路一段/新生北路三段(北側)(新生高架橋下)",
    "lat": 25.062924,
    "lng": 121.52772,
    "country": "台北市"
  },
  {
    "location": "中山區",
    "address": "松江路/南京東路二段(東北側)(鄰近四平陽光商圈)",
    "lat": 25.052181,
    "lng": 121.533211,
    "country": "台北市"
  },
  {
    "location": "中山區",
    "address": "興安街/遼寧街",
    "lat": 25.055997,
    "lng": 121.542318,
    "country": "台北市"
  },
  {
    "location": "中山區",
    "address": "通北街143號前",
    "lat": 25.084759,
    "lng": 121.537892,
    "country": "台北市"
  },
  {
    "location": "中山區",
    "address": "北安路458巷41弄/北安路536巷(捷運大直站3號出口前人行道)",
    "lat": 25.079278,
    "lng": 121.546683,
    "country": "台北市"
  },
  {
    "location": "中山區",
    "address": "市民大道二段/林森北路(東北側)(鄰近台北國際藝術村/台北希望廣場)",
    "lat": 25.047958,
    "lng": 121.524388,
    "country": "台北市"
  },
  {
    "location": "中山區",
    "address": "樂群二路180號前廣場",
    "lat": 25.079766,
    "lng": 121.558135,
    "country": "台北市"
  },
  {
    "location": "中山區",
    "address": "北安路676號前人行道",
    "lat": 25.084223,
    "lng": 121.549452,
    "country": "台北市"
  },
  {
    "location": "中山區",
    "address": "崇實路/大直街62巷(東南側)",
    "lat": 25.082553,
    "lng": 121.544601,
    "country": "台北市"
  },
  {
    "location": "中山區",
    "address": "中山北路2段180號對面(鄰近大同大學/雙城街夜市)",
    "lat": 25.064108,
    "lng": 121.522065,
    "country": "台北市"
  },
  {
    "location": "中山區",
    "address": "南京東路二段/建國北路二段(北側)(鄰近袖珍博物館)",
    "lat": 25.052141,
    "lng": 121.536802,
    "country": "台北市"
  },
  {
    "location": "中山區",
    "address": "復興南路一段36-9號前人行道(復興市民路口)(鄰近微風廣場/黑松世界)",
    "lat": 25.045908,
    "lng": 121.543736,
    "country": "台北市"
  },
  {
    "location": "中山區",
    "address": "復興北路370號前方人行道(捷運中山國中站)",
    "lat": 25.060632,
    "lng": 121.544028,
    "country": "台北市"
  },
  {
    "location": "中山區",
    "address": "南京東路三段189號對面(南京遼寧街口東南側)(鄰近遼寧夜市)",
    "lat": 25.051761,
    "lng": 121.542168,
    "country": "台北市"
  },
  {
    "location": "中山區",
    "address": "伊通街/長安東路二段(交叉口西南側路側)(鄰近袖珍博物館/樹火紀念紙博物館)",
    "lat": 25.048334,
    "lng": 121.534693,
    "country": "台北市"
  },
  {
    "location": "中山區",
    "address": "松江路/松江路84巷(西北側路側)(鄰近樹火紀念紙博物館)",
    "lat": 25.050245,
    "lng": 121.532725,
    "country": "台北市"
  },
  {
    "location": "中山區",
    "address": "民族東路410巷1號對面(第二果菜市場)",
    "lat": 25.067558,
    "lng": 121.538264,
    "country": "台北市"
  },
  {
    "location": "中山區",
    "address": "民族東路/吉林路口(西北側)(鄰近花博公園新生園區)",
    "lat": 25.068387,
    "lng": 121.530188,
    "country": "台北市"
  },
  {
    "location": "中山區",
    "address": "龍江路15號前方人行道(鄰近遼寧夜市)",
    "lat": 25.047617,
    "lng": 121.540431,
    "country": "台北市"
  },
  {
    "location": "中山區",
    "address": "林森北路/長春路口西北角人行道(林森長春路口)(鄰近林森公園/康樂公園)",
    "lat": 25.055062,
    "lng": 121.525383,
    "country": "台北市"
  },
  {
    "location": "中山區",
    "address": "民生東路三段/復興北路280巷10弄口(西北側)",
    "lat": 25.057923,
    "lng": 121.542732,
    "country": "台北市"
  },
  {
    "location": "中山區",
    "address": "民族東路/林森北路口(西北側)(鄰近花博公園美術園區)",
    "lat": 25.068507,
    "lng": 121.525322,
    "country": "台北市"
  },
  {
    "location": "中山區",
    "address": "民生東路一段23巷/民生東路一段27巷口(北側)",
    "lat": 25.058835,
    "lng": 121.52504,
    "country": "台北市"
  },
  {
    "location": "中山區",
    "address": "錦州街13巷/中山北路二段137巷口(東南側)(鄰近雙城街夜市)",
    "lat": 25.061568,
    "lng": 121.524392,
    "country": "台北市"
  },
  {
    "location": "中山區",
    "address": "一江街/松江路132巷口(西北側)(鄰近四平陽光商圈)",
    "lat": 25.05316,
    "lng": 121.53146,
    "country": "台北市"
  },
  {
    "location": "中山區",
    "address": "樂群二路/明水路口(東側)",
    "lat": 25.07983,
    "lng": 121.55236,
    "country": "台北市"
  },
  {
    "location": "中山區",
    "address": "民族西路/民族西路31巷口(東北側)(鄰近大同大學/花博公園圓山園區/花博圓山公園區-爭艷館/中山親子館)",
    "lat": 25.06859,
    "lng": 121.51974,
    "country": "台北市"
  },
  {
    "location": "中山區",
    "address": "南京西路6號(前方)(鄰近台北之家(光點台北))",
    "lat": 25.05225,
    "lng": 121.52193,
    "country": "台北市"
  },
  {
    "location": "中山區",
    "address": "民權東路三段/建國北路三段口(東北側)(鄰近建國假日花市)",
    "lat": 25.06252,
    "lng": 121.53754,
    "country": "台北市"
  },
  {
    "location": "中山區",
    "address": "民生東路三段/建國北路二段口",
    "lat": 25.057778,
    "lng": 121.536915,
    "country": "台北市"
  },
  {
    "location": "中山區",
    "address": "錦州街162號前方",
    "lat": 25.06029,
    "lng": 121.52981,
    "country": "台北市"
  },
  {
    "location": "中山區",
    "address": "新生北路一段/南京東路一段口(橋墩下方)(鄰近林森公園/康樂公園)",
    "lat": 25.051944,
    "lng": 121.527661,
    "country": "台北市"
  },
  {
    "location": "中山區",
    "address": "臺北市新生北路三段105號",
    "lat": 25.068788,
    "lng": 121.53243,
    "country": "臺北市"
  },
  {
    "location": "中山區",
    "address": "臺北市北安路534之1號",
    "lat": 25.079548,
    "lng": 121.546831,
    "country": "臺北市"
  },
  {
    "location": "中山區",
    "address": "臺北市中山區松江路126號",
    "lat": 25.051352,
    "lng": 121.532918,
    "country": "臺北市"
  },
  {
    "location": "中山區",
    "address": "臺北市中山區松江路126號",
    "lat": 25.051352,
    "lng": 121.532918,
    "country": "臺北市"
  },
  {
    "location": "中山區",
    "address": "臺北市松江路316號",
    "lat": 25.059975,
    "lng": 121.533192,
    "country": "臺北市"
  },
  {
    "location": "中山區",
    "address": "臺北市松江路316號",
    "lat": 25.059975,
    "lng": 121.533192,
    "country": "臺北市"
  },
  {
    "location": "中山區",
    "address": "臺北市民權東路1段71號",
    "lat": 25.062701,
    "lng": 121.526682,
    "country": "臺北市"
  },
  {
    "location": "中山區",
    "address": "臺北市民權東路1段71號",
    "lat": 25.062701,
    "lng": 121.526682,
    "country": "臺北市"
  },
  {
    "location": "中山區",
    "address": "中山區北路東側美術公園",
    "lat": 25.069227,
    "lng": 121.523767,
    "country": "臺北市"
  },
  {
    "location": "中山區",
    "address": "中山區北路東側美術公園",
    "lat": 25.070027,
    "lng": 121.523968,
    "country": "臺北市"
  },
  {
    "location": "中山區",
    "address": "臺北市中山區北路三段東側",
    "lat": 25.07088,
    "lng": 121.52527,
    "country": "臺北市"
  },
  {
    "location": "中山區",
    "address": "新生北路三段105號",
    "lat": 25.07026,
    "lng": 121.52962,
    "country": "臺北市"
  },
  {
    "location": "中山區",
    "address": "大佳河濱公園",
    "lat": 25.07487,
    "lng": 121.53023,
    "country": "臺北市"
  },
  {
    "location": "中山區",
    "address": "大佳河濱公園",
    "lat": 25.074392,
    "lng": 121.532143,
    "country": "臺北市"
  },
  {
    "location": "中山區",
    "address": "大佳河濱公園",
    "lat": 25.07542,
    "lng": 121.53472,
    "country": "臺北市"
  },
  {
    "location": "中山區",
    "address": "大佳河濱公園",
    "lat": 25.074618,
    "lng": 121.535579,
    "country": "臺北市"
  },
  {
    "location": "中山區",
    "address": "大佳河濱公園",
    "lat": 25.07556,
    "lng": 121.53695,
    "country": "臺北市"
  },
  {
    "location": "中山區",
    "address": "大佳河濱公園",
    "lat": 25.07411,
    "lng": 121.53779,
    "country": "臺北市"
  },
  {
    "location": "中山區",
    "address": "大佳河濱公園",
    "lat": 25.0737,
    "lng": 121.53864,
    "country": "臺北市"
  },
  {
    "location": "中山區",
    "address": "大佳河濱公園",
    "lat": 25.074648,
    "lng": 121.539313,
    "country": "臺北市"
  },
  {
    "location": "中山區",
    "address": "臺北市中山區濱江街107號大佳國小後方",
    "lat": 25.074576,
    "lng": 121.535284,
    "country": "臺北市"
  },
  {
    "location": "中山區",
    "address": "臺北市中山區松江路126號",
    "lat": 25.05213,
    "lng": 121.533256,
    "country": "臺北市"
  },
  {
    "location": "中山區",
    "address": "臺北市中山區松江路126號",
    "lat": 25.05213,
    "lng": 121.533256,
    "country": "臺北市"
  },
  {
    "location": "中山區",
    "address": "臺北市長安西路39號",
    "lat": 25.050625,
    "lng": 121.518721,
    "country": "臺北市"
  },
  {
    "location": "中山區",
    "address": "民權東路三段1號(民權東路建國北路)",
    "lat": 25.06396,
    "lng": 121.53841,
    "country": "臺北市"
  },
  {
    "location": "中山區",
    "address": "民權東路三段1號(民權東路建國北路)",
    "lat": 25.063579,
    "lng": 121.539165,
    "country": "臺北市"
  },
  {
    "location": "中山區",
    "address": "南京東路一段,林森北路右側.",
    "lat": 25.05286,
    "lng": 121.52633,
    "country": "臺北市"
  },
  {
    "location": "中山區",
    "address": "台北市新生北路2段28巷5號",
    "lat": 25.05379,
    "lng": 121.52649,
    "country": "臺北市"
  },
  {
    "location": "中山區",
    "address": "臺北市中山區南京東路1段88號(林森公園)",
    "lat": 25.052996,
    "lng": 121.526418,
    "country": "臺北市"
  },
  {
    "location": "中山區",
    "address": "金山北路與八德路一段口附近",
    "lat": 25.044894,
    "lng": 121.530377,
    "country": "臺北市"
  },
  {
    "location": "中山區",
    "address": "臺北市長安西路3號",
    "lat": 25.05007,
    "lng": 121.52101,
    "country": "臺北市"
  },
  {
    "location": "中山區",
    "address": "臺北市中山區北路三段",
    "lat": 25.07067,
    "lng": 121.52147,
    "country": "臺北市"
  },
  {
    "location": "中山區",
    "address": "臺北市中山區北路三段",
    "lat": 25.07035,
    "lng": 121.5205,
    "country": "臺北市"
  },
  {
    "location": "中山區",
    "address": "臺北市中山區北路三段",
    "lat": 25.07069,
    "lng": 121.52203,
    "country": "臺北市"
  },
  {
    "location": "中山區",
    "address": "臺北市市民大道2段與天津街西北側",
    "lat": 25.04833,
    "lng": 121.52189,
    "country": "臺北市"
  },
  {
    "location": "中山區",
    "address": "臺北市林森北路與市民大道2段口東北側",
    "lat": 25.04809,
    "lng": 121.52472,
    "country": "臺北市"
  },
  {
    "location": "中山區",
    "address": "臺北市中山區北安路口圓山飯店下方",
    "lat": 25.076828,
    "lng": 121.527272,
    "country": "臺北市"
  },
  {
    "location": "中山區",
    "address": "台北市松山區民族東路512巷26號對面",
    "lat": 25.06689,
    "lng": 121.54214,
    "country": "臺北市"
  },
  {
    "location": "中山區",
    "address": "台北市中山區合江街137號對面",
    "lat": 25.06136,
    "lng": 121.53943,
    "country": "臺北市"
  },
  {
    "location": "中山區",
    "address": "臺北市中山區北安路588巷23弄5號對面",
    "lat": 25.081331,
    "lng": 121.550789,
    "country": "臺北市"
  },
  {
    "location": "中山區",
    "address": "台北市中山區大直街52巷26號旁",
    "lat": 25.08237,
    "lng": 121.54518,
    "country": "臺北市"
  },
  {
    "location": "中山區",
    "address": "臺北市中山區伊通街97-2號對面",
    "lat": 25.053126,
    "lng": 121.534636,
    "country": "臺北市"
  },
  {
    "location": "中山區",
    "address": "台北市中山區松江路184巷27號",
    "lat": 25.05638,
    "lng": 121.53187,
    "country": "臺北市"
  },
  {
    "location": "中山區",
    "address": "臺北市中山區吉林路51巷20號對面",
    "lat": 25.053317,
    "lng": 121.531308,
    "country": "臺北市"
  },
  {
    "location": "中山區",
    "address": "臺北市中山區民生東路2段127巷23號",
    "lat": 25.06022,
    "lng": 121.53245,
    "country": "臺北市"
  },
  {
    "location": "中山區",
    "address": "臺北市中山區吉林路461巷內",
    "lat": 25.067409,
    "lng": 121.531511,
    "country": "臺北市"
  },
  {
    "location": "中山區",
    "address": "臺北市中山區合江街27號對面",
    "lat": 25.05533,
    "lng": 121.539066,
    "country": "臺北市"
  },
  {
    "location": "中山區",
    "address": "臺北市中山區興安街53-5號對面",
    "lat": 25.056045,
    "lng": 121.541809,
    "country": "臺北市"
  },
  {
    "location": "中山區",
    "address": "臺北市文山區中山區北路二段27巷17號對面",
    "lat": 25.053541,
    "lng": 121.524648,
    "country": "臺北市"
  },
  {
    "location": "中山區",
    "address": "臺北市中山區樂群二路116巷61弄8號旁",
    "lat": 25.07755,
    "lng": 121.55538,
    "country": "臺北市"
  },
  {
    "location": "中山區",
    "address": "臺北市中山區樂群二路266巷112號旁",
    "lat": 25.076592,
    "lng": 121.561813,
    "country": "臺北市"
  },
  {
    "location": "中山區",
    "address": "臺北市中山區堤頂大道二段246巷3-9號旁",
    "lat": 25.076997,
    "lng": 121.566344,
    "country": "臺北市"
  },
  {
    "location": "中山區",
    "address": "臺北市中山區中山區北路3段22號前",
    "lat": 25.064571,
    "lng": 121.522065,
    "country": "臺北市"
  },
  {
    "location": "中山區",
    "address": "臺北市民權西路72號",
    "lat": 25.062605,
    "lng": 121.519547,
    "country": "臺北市"
  },
  {
    "location": "中山區",
    "address": "臺北市民權西路72號",
    "lat": 25.06303,
    "lng": 121.519788,
    "country": "臺北市"
  },
  {
    "location": "中山區",
    "address": "臺北市民權西路72號",
    "lat": 25.06303,
    "lng": 121.519788,
    "country": "臺北市"
  },
  {
    "location": "中山區",
    "address": "臺北市民生西路47號",
    "lat": 25.057496,
    "lng": 121.520579,
    "country": "臺北市"
  },
  {
    "location": "中山區",
    "address": "雙連站及中山區站間地下街",
    "lat": 25.055401,
    "lng": 121.520545,
    "country": "臺北市"
  },
  {
    "location": "中山區",
    "address": "雙連站及中山區站間地下街",
    "lat": 25.055401,
    "lng": 121.520545,
    "country": "臺北市"
  },
  {
    "location": "中山區",
    "address": "臺北市南京西路16號",
    "lat": 25.052423,
    "lng": 121.520302,
    "country": "臺北市"
  },
  {
    "location": "中山區",
    "address": "臺北市南京東路3段253號",
    "lat": 25.052392,
    "lng": 121.544527,
    "country": "臺北市"
  },
  {
    "location": "中山區",
    "address": "臺北市復興北路376號",
    "lat": 25.060836,
    "lng": 121.544022,
    "country": "臺北市"
  },
  {
    "location": "中山區",
    "address": "臺北市中山區民生東路一段23巷44號對面",
    "lat": 25.058863,
    "lng": 121.525055,
    "country": "臺北市"
  },
  {
    "location": "中山區",
    "address": "臺北市中山區新生北路三段11巷63號對面",
    "lat": 25.063504,
    "lng": 121.530064,
    "country": "臺北市"
  },
  {
    "location": "中山區",
    "address": "臺北市中山區中原街106號對面",
    "lat": 25.060629,
    "lng": 121.529096,
    "country": "臺北市"
  },
  {
    "location": "中山區",
    "address": "臺北市長安西路3號2樓",
    "lat": 25.05032,
    "lng": 121.52121,
    "country": "臺北市"
  }
]