[
  {
    "location": "信義區",
    "address": "忠孝東路/松仁路(東南側)",
    "lat": 25.0408578889,
    "lng": 121.567904444,
    "country": "台北市"
  },
  {
    "location": "信義區",
    "address": "台北市政府東門(松智路)(鄰近信義商圈/台北探索館)",
    "lat": 25.0377972222,
    "lng": 121.565169444,
    "country": "台北市"
  },
  {
    "location": "信義區",
    "address": "市府路/松壽路(西北側)(鄰近台北101/台北世界貿易中心/台北探索館)",
    "lat": 25.0360361111,
    "lng": 121.562325,
    "country": "台北市"
  },
  {
    "location": "信義區",
    "address": "松仁路/松仁路95巷(東南側)(鄰近信義商圈/台北信義威秀影城)",
    "lat": 25.0365638889,
    "lng": 121.5686639,
    "country": "台北市"
  },
  {
    "location": "信義區",
    "address": "松智路/松廉路(東北側)(鄰近台北101/信義商圈/台北信義威秀影城)",
    "lat": 25.034047,
    "lng": 121.565973,
    "country": "台北市"
  },
  {
    "location": "信義區",
    "address": "松智路/信義路(東北側)(鄰近台北101)",
    "lat": 25.0330388889,
    "lng": 121.565619444,
    "country": "台北市"
  },
  {
    "location": "信義區",
    "address": "市府路/松壽路(東南側)(鄰近台北101/台北世界貿易中心/台北探索館)",
    "lat": 25.0352138889,
    "lng": 121.563688889,
    "country": "台北市"
  },
  {
    "location": "信義區",
    "address": "台北市信義區松德路300號",
    "lat": 25.031785,
    "lng": 121.57448,
    "country": "台北市"
  },
  {
    "location": "信義區",
    "address": "台北市信義區莊敬路391巷11弄2號",
    "lat": 25.0286611111,
    "lng": 121.566116667,
    "country": "台北市"
  },
  {
    "location": "信義區",
    "address": "光復南路/基隆路一段364巷(鄰近大安親子館)",
    "lat": 25.034937,
    "lng": 121.55762,
    "country": "台北市"
  },
  {
    "location": "信義區",
    "address": "台北醫學大學(吳興街220巷59弄)(鄰近台北醫學大學)",
    "lat": 25.026679,
    "lng": 121.561747,
    "country": "台北市"
  },
  {
    "location": "信義區",
    "address": "大道路/福德街路口北西側",
    "lat": 25.03809,
    "lng": 121.58367,
    "country": "台北市"
  },
  {
    "location": "信義區",
    "address": "林口街/福德街(東南側)",
    "lat": 25.036084,
    "lng": 121.579135,
    "country": "台北市"
  },
  {
    "location": "信義區",
    "address": "松仁路153巷17號對面(鄰近象山步道)",
    "lat": 25.02863,
    "lng": 121.56981,
    "country": "台北市"
  },
  {
    "location": "信義區",
    "address": "松山車站西出口外自行車格內(鄰近饒河街夜市/五分埔)",
    "lat": 25.048824,
    "lng": 121.57845,
    "country": "台北市"
  },
  {
    "location": "信義區",
    "address": "松信路/永吉路南西側人行道",
    "lat": 25.04543,
    "lng": 121.57205,
    "country": "台北市"
  },
  {
    "location": "信義區",
    "address": "松隆路/虎林街30巷口(西南側)",
    "lat": 25.04814,
    "lng": 121.57467,
    "country": "台北市"
  },
  {
    "location": "信義區",
    "address": "中坡北路/忠孝東路五段(西北側)",
    "lat": 25.04431,
    "lng": 121.58174,
    "country": "台北市"
  },
  {
    "location": "信義區",
    "address": "莊敬路/信義路五段(東南側)(鄰近台北世界貿易中心(世貿)/台北國際會議中心/信義公民會館(四四南村)/信義親子館)",
    "lat": 25.032752,
    "lng": 121.561645,
    "country": "台北市"
  },
  {
    "location": "信義區",
    "address": "基隆路二段/光復南路(東北側)(鄰近通化夜市)",
    "lat": 25.0300508,
    "lng": 121.557635,
    "country": "台北市"
  },
  {
    "location": "信義區",
    "address": "信義路五段/信義路五段91巷(西北側)",
    "lat": 25.032922,
    "lng": 121.57087,
    "country": "台北市"
  },
  {
    "location": "信義區",
    "address": "松仁路/吳興街交叉口",
    "lat": 25.023877,
    "lng": 121.569836,
    "country": "台北市"
  },
  {
    "location": "信義區",
    "address": "仁愛路四段/逸仙路(西北側)(鄰近國父紀念館/台北探索館)",
    "lat": 25.037724,
    "lng": 121.561178,
    "country": "台北市"
  },
  {
    "location": "信義區",
    "address": "忠孝東路五段420號旁(東側巷道上)",
    "lat": 25.040558,
    "lng": 121.575372,
    "country": "台北市"
  },
  {
    "location": "信義區",
    "address": "松德路168巷20號前",
    "lat": 25.036568,
    "lng": 121.57343,
    "country": "台北市"
  },
  {
    "location": "信義區",
    "address": "基隆路一段172巷15號對面人行道(松山高中)",
    "lat": 25.043299,
    "lng": 121.564108,
    "country": "台北市"
  },
  {
    "location": "信義區",
    "address": "吳興街583巷67弄(泰和公園)",
    "lat": 25.019276,
    "lng": 121.57107,
    "country": "台北市"
  },
  {
    "location": "信義區",
    "address": "林口街72號對面公園(林口公園)",
    "lat": 25.038943,
    "lng": 121.579146,
    "country": "台北市"
  },
  {
    "location": "信義區",
    "address": "吳興街118巷35弄28號前方(三興公園)",
    "lat": 25.028679,
    "lng": 121.55932,
    "country": "台北市"
  },
  {
    "location": "信義區",
    "address": "松信路209號前人行道",
    "lat": 25.041935,
    "lng": 121.571999,
    "country": "台北市"
  },
  {
    "location": "信義區",
    "address": "信義路四段401號(前方)(鄰近台北國際會議中心)",
    "lat": 25.033209,
    "lng": 121.558731,
    "country": "台北市"
  },
  {
    "location": "信義區",
    "address": "基隆路一段/基隆路一段101巷口(東南側)",
    "lat": 25.04525,
    "lng": 121.56709,
    "country": "台北市"
  },
  {
    "location": "信義區",
    "address": "信義路六段76巷2弄16號(南側)",
    "lat": 25.03423,
    "lng": 121.57636,
    "country": "台北市"
  },
  {
    "location": "信義區",
    "address": "忠孝東路五段721號(對側)",
    "lat": 25.042619,
    "lng": 121.580762,
    "country": "台北市"
  },
  {
    "location": "信義區",
    "address": "吳興街260巷/吳興街260巷19弄口(鄰近台北醫學大學)",
    "lat": 25.0261,
    "lng": 121.56316,
    "country": "台北市"
  },
  {
    "location": "信義區",
    "address": "福德街251巷2號(對面/東側)",
    "lat": 25.038324,
    "lng": 121.586245,
    "country": "台北市"
  },
  {
    "location": "信義區",
    "address": "松德路71號前方",
    "lat": 25.038352,
    "lng": 121.576248,
    "country": "台北市"
  },
  {
    "location": "信義區",
    "address": "虎林街212巷58號(西南側)",
    "lat": 25.036844,
    "lng": 121.575413,
    "country": "台北市"
  },
  {
    "location": "大安區",
    "address": "忠孝東路四段/光復南路口(西南側)",
    "lat": 25.041254,
    "lng": 121.55742,
    "country": "台北市"
  },
  {
    "location": "大安區",
    "address": "科技大樓站對面(復興南路2段西側)(鄰近資訊科學展示中心)",
    "lat": 25.025896,
    "lng": 121.543293,
    "country": "台北市"
  },
  {
    "location": "大安區",
    "address": "信義路三段/建國南路二段(西南側)(鄰近大安森林公園)",
    "lat": 25.03293,
    "lng": 121.53747,
    "country": "台北市"
  },
  {
    "location": "大安區",
    "address": "愛國東路/金山南路(西南側)",
    "lat": 25.03164,
    "lng": 121.52655,
    "country": "台北市"
  },
  {
    "location": "大安區",
    "address": "基隆路/長興街(東南側)",
    "lat": 25.017054,
    "lng": 121.544352,
    "country": "台北市"
  },
  {
    "location": "大安區",
    "address": "辛亥路/新生南路(高架橋下)",
    "lat": 25.022413,
    "lng": 121.53456,
    "country": "台北市"
  },
  {
    "location": "大安區",
    "address": "捷運出口外和平東路側",
    "lat": 25.023884,
    "lng": 121.553161,
    "country": "台北市"
  },
  {
    "location": "大安區",
    "address": "辛亥路二段(臺大外語學院外)",
    "lat": 25.02101,
    "lng": 121.54153,
    "country": "台北市"
  },
  {
    "location": "大安區",
    "address": "信義路/麗水街口(鄰近永康街)",
    "lat": 25.0337,
    "lng": 121.528988,
    "country": "台北市"
  },
  {
    "location": "大安區",
    "address": "和平東路/師大路口(北側)(鄰近臺灣師範大學)",
    "lat": 25.02665,
    "lng": 121.52889,
    "country": "台北市"
  },
  {
    "location": "大安區",
    "address": "羅斯福路四段/舟山路(東北側)(鄰近公館夜市)",
    "lat": 25.01476,
    "lng": 121.534538,
    "country": "台北市"
  },
  {
    "location": "大安區",
    "address": "忠孝東路三段/新生南路一段口東北側(鄰近國立台北科技大學)",
    "lat": 25.042275,
    "lng": 121.533939,
    "country": "台北市"
  },
  {
    "location": "大安區",
    "address": "忠孝東路/敦化南路(西南側廣場）(鄰近東區地下街)",
    "lat": 25.040901,
    "lng": 121.548252,
    "country": "台北市"
  },
  {
    "location": "大安區",
    "address": "建國南路二段/建國南路二段151巷(東北側)",
    "lat": 25.028798,
    "lng": 121.538073,
    "country": "台北市"
  },
  {
    "location": "大安區",
    "address": "新生南路二段/和平東路二段(東北側)",
    "lat": 25.026217,
    "lng": 121.53519,
    "country": "台北市"
  },
  {
    "location": "大安區",
    "address": "基隆路四段/基隆路四段73巷交叉口(鄰近國立台灣科技大學)",
    "lat": 25.0131,
    "lng": 121.539723,
    "country": "台北市"
  },
  {
    "location": "大安區",
    "address": "大安路一段/仁愛路四段",
    "lat": 25.037569,
    "lng": 121.545632,
    "country": "台北市"
  },
  {
    "location": "大安區",
    "address": "通化街/信義路四段(西南側)(鄰近臨江街夜市(通化夜市)/大安親子館)",
    "lat": 25.032985,
    "lng": 121.554204,
    "country": "台北市"
  },
  {
    "location": "大安區",
    "address": "羅斯福路/辛亥路交叉口(古亭國小前)",
    "lat": 25.020547,
    "lng": 121.528552,
    "country": "台北市"
  },
  {
    "location": "大安區",
    "address": "信義路三段31巷/信義路三段(南側)(鄰近大安森林公園)",
    "lat": 25.033344,
    "lng": 121.534236,
    "country": "台北市"
  },
  {
    "location": "大安區",
    "address": "信義路四段/敦化南路一段(東北側)",
    "lat": 25.033362,
    "lng": 121.54911,
    "country": "台北市"
  },
  {
    "location": "大安區",
    "address": "復興南路/信義路三段(西南側)",
    "lat": 25.033078,
    "lng": 121.543057,
    "country": "台北市"
  },
  {
    "location": "大安區",
    "address": "復興南路一段/仁愛路三段123巷13弄(西北側)",
    "lat": 25.040184,
    "lng": 121.543497,
    "country": "台北市"
  },
  {
    "location": "大安區",
    "address": "敦化南路二段/基隆路二段交叉口",
    "lat": 25.022073,
    "lng": 121.548336,
    "country": "台北市"
  },
  {
    "location": "大安區",
    "address": "四維路198巷/和平東路三段1巷",
    "lat": 25.026808,
    "lng": 121.546726,
    "country": "台北市"
  },
  {
    "location": "大安區",
    "address": "羅斯福路四段/新生南路三段交叉口(鄰近公館夜市)",
    "lat": 25.01603085,
    "lng": 121.5331757,
    "country": "台北市"
  },
  {
    "location": "大安區",
    "address": "和平東路三段/和平東路三段416巷(捷運高架橋下)(鄰近富陽自然生態公園)",
    "lat": 25.018097,
    "lng": 121.559279,
    "country": "台北市"
  },
  {
    "location": "大安區",
    "address": "建國南路二段/和平東路二段(西北側)",
    "lat": 25.02585,
    "lng": 121.537383,
    "country": "台北市"
  },
  {
    "location": "大安區",
    "address": "大安路一段/大安路一段75巷(西側)(鄰近東區地下街)",
    "lat": 25.042342,
    "lng": 121.54605,
    "country": "台北市"
  },
  {
    "location": "大安區",
    "address": "仁愛路四段/延吉街(東南側)(鄰近大安親子館)",
    "lat": 25.037465,
    "lng": 121.555769,
    "country": "台北市"
  },
  {
    "location": "大安區",
    "address": "臥龍街267號對面人行道(臥龍樂業街口)",
    "lat": 25.0186,
    "lng": 121.554839,
    "country": "台北市"
  },
  {
    "location": "大安區",
    "address": "基隆路二段166號前(喬治工商)",
    "lat": 25.027123,
    "lng": 121.555566,
    "country": "台北市"
  },
  {
    "location": "大安區",
    "address": "忠孝東路三段221號前方人行道",
    "lat": 25.04184,
    "lng": 121.539873,
    "country": "台北市"
  },
  {
    "location": "大安區",
    "address": "辛亥路三段55號前方人行道(大安運動中心)(鄰近國立臺北教育大學)",
    "lat": 25.020544,
    "lng": 121.545608,
    "country": "台北市"
  },
  {
    "location": "大安區",
    "address": "和平東路二段96巷8之1號(前方)(鄰近資訊科學展示中心)",
    "lat": 25.023473,
    "lng": 121.541083,
    "country": "台北市"
  },
  {
    "location": "大安區",
    "address": "金華街251號對面(金華公園)(鄰近永康街)",
    "lat": 25.029902,
    "lng": 121.531235,
    "country": "台北市"
  },
  {
    "location": "大安區",
    "address": "羅斯福路二段/羅斯福路二段15巷口(西側)",
    "lat": 25.027781,
    "lng": 121.52198,
    "country": "台北市"
  },
  {
    "location": "大安區",
    "address": "仁愛路四段/仁愛路四段222巷(東南側)",
    "lat": 25.03757,
    "lng": 121.552076,
    "country": "台北市"
  },
  {
    "location": "大安區",
    "address": "信義路四段/安和路一段口(東北側)",
    "lat": 25.033323,
    "lng": 121.552787,
    "country": "台北市"
  },
  {
    "location": "大安區",
    "address": "敦化南路二段97-101號(西側)",
    "lat": 25.028973,
    "lng": 121.549024,
    "country": "台北市"
  },
  {
    "location": "大安區",
    "address": "復興南路一段133號(西南側)(鄰近東區地下街)",
    "lat": 25.04264,
    "lng": 121.54401,
    "country": "台北市"
  },
  {
    "location": "大安區",
    "address": "復興南路二段144-3號前方",
    "lat": 25.02904,
    "lng": 121.54336,
    "country": "台北市"
  },
  {
    "location": "大安區",
    "address": "建國南路一段/濟南路三段口(東南側)",
    "lat": 25.040033,
    "lng": 121.538084,
    "country": "台北市"
  },
  {
    "location": "大安區",
    "address": "和平東路一段/金山南路二段口(西南側)(鄰近臺灣師範大學)",
    "lat": 25.02672,
    "lng": 121.52533,
    "country": "台北市"
  },
  {
    "location": "大安區",
    "address": "復興南路一段322號(東南側)",
    "lat": 25.03617,
    "lng": 121.5435,
    "country": "台北市"
  },
  {
    "location": "大安區",
    "address": "樂業街101巷/樂業街口(北側側)",
    "lat": 25.02109,
    "lng": 121.55219,
    "country": "台北市"
  },
  {
    "location": "大安區",
    "address": "和平東路一段178號(前側)(鄰近臺灣師範大學)",
    "lat": 25.026404,
    "lng": 121.52946,
    "country": "台北市"
  },
  {
    "location": "大安區",
    "address": "和平東路三段/敦化南路二段口(東側)",
    "lat": 25.02444,
    "lng": 121.549076,
    "country": "台北市"
  },
  {
    "location": "中山區",
    "address": "五常街/龍江路口(西南側)(鄰近榮星公園(原榮星花園))",
    "lat": 25.06424,
    "lng": 121.54037,
    "country": "台北市"
  },
  {
    "location": "中山區",
    "address": "捷運行天宮1號出口後方(松江路側)",
    "lat": 25.058369,
    "lng": 121.532934,
    "country": "台北市"
  },
  {
    "location": "中山區",
    "address": "捷運行天宮站3號出口站外",
    "lat": 25.059978,
    "lng": 121.533302,
    "country": "台北市"
  },
  {
    "location": "中山區",
    "address": "建國北路/農安街口(中油旁邊空地)(鄰近榮星公園(原榮星花園))",
    "lat": 25.065031,
    "lng": 121.536775,
    "country": "台北市"
  },
  {
    "location": "中山區",
    "address": "建國北路/長春路口(北側)",
    "lat": 25.054761,
    "lng": 121.536925,
    "country": "台北市"
  },
  {
    "location": "中山區",
    "address": "建國南路一段/市民大道交叉口(北側)(鄰近國立台北科技大學)",
    "lat": 25.044781,
    "lng": 121.536609,
    "country": "台北市"
  },
  {
    "location": "中山區",
    "address": "林森北路/南京東路一段(鄰近林森公園/康樂公園)",
    "lat": 25.052227,
    "lng": 121.525805,
    "country": "台北市"
  },
  {
    "location": "中山區",
    "address": "松江路/農安街口(鄰近行天宮)",
    "lat": 25.064317,
    "lng": 121.533487,
    "country": "台北市"
  },
  {
    "location": "中山區",
    "address": "新生北路一段/長安東路二段交叉口(北側)",
    "lat": 25.048611,
    "lng": 121.529346,
    "country": "台北市"
  },
  {
    "location": "中山區",
    "address": "新生北路二段/新生北路二段68巷交叉口(新生橋下)",
    "lat": 25.056387,
    "lng": 121.527522,
    "country": "台北市"
  },
  {
    "location": "中山區",
    "address": "中山北路三段/酒泉街(西南側)(鄰近台北市立美術館/花博公園美術園區/台北故事館/花博公園圓山園區/花博圓山公園區-爭艷館/中山親子館)",
    "lat": 25.070629,
    "lng": 121.523268,
    "country": "台北市"
  },
  {
    "location": "中山區",
    "address": "吉林路/民族東路(北側)(鄰近林安泰古厝/花博公園新生園區)",
    "lat": 25.071606,
    "lng": 121.530805,
    "country": "台北市"
  },
  {
    "location": "中山區",
    "address": "敬業二路/植福路(東北側)(鄰近美麗華百樂園/劍潭古寺)",
    "lat": 25.08418,
    "lng": 121.555116,
    "country": "台北市"
  },
  {
    "location": "中山區",
    "address": "龍江路110號對面停車場",
    "lat": 25.05298,
    "lng": 121.540568,
    "country": "台北市"
  },
  {
    "location": "中山區",
    "address": "民權東路一段/新生北路三段(北側)(新生高架橋下)",
    "lat": 25.062924,
    "lng": 121.52772,
    "country": "台北市"
  },
  {
    "location": "中山區",
    "address": "松江路/南京東路二段(東北側)(鄰近四平陽光商圈)",
    "lat": 25.052181,
    "lng": 121.533211,
    "country": "台北市"
  },
  {
    "location": "中山區",
    "address": "興安街/遼寧街",
    "lat": 25.055997,
    "lng": 121.542318,
    "country": "台北市"
  },
  {
    "location": "中山區",
    "address": "通北街143號前",
    "lat": 25.084759,
    "lng": 121.537892,
    "country": "台北市"
  },
  {
    "location": "中山區",
    "address": "北安路458巷41弄/北安路536巷(捷運大直站3號出口前人行道)",
    "lat": 25.079278,
    "lng": 121.546683,
    "country": "台北市"
  },
  {
    "location": "中山區",
    "address": "市民大道二段/林森北路(東北側)(鄰近台北國際藝術村/台北希望廣場)",
    "lat": 25.047958,
    "lng": 121.524388,
    "country": "台北市"
  },
  {
    "location": "中山區",
    "address": "樂群二路180號前廣場",
    "lat": 25.079766,
    "lng": 121.558135,
    "country": "台北市"
  },
  {
    "location": "中山區",
    "address": "北安路676號前人行道",
    "lat": 25.084223,
    "lng": 121.549452,
    "country": "台北市"
  },
  {
    "location": "中山區",
    "address": "崇實路/大直街62巷(東南側)",
    "lat": 25.082553,
    "lng": 121.544601,
    "country": "台北市"
  },
  {
    "location": "中山區",
    "address": "中山北路2段180號對面(鄰近大同大學/雙城街夜市)",
    "lat": 25.064108,
    "lng": 121.522065,
    "country": "台北市"
  },
  {
    "location": "中山區",
    "address": "南京東路二段/建國北路二段(北側)(鄰近袖珍博物館)",
    "lat": 25.052141,
    "lng": 121.536802,
    "country": "台北市"
  },
  {
    "location": "中山區",
    "address": "復興南路一段36-9號前人行道(復興市民路口)(鄰近微風廣場/黑松世界)",
    "lat": 25.045908,
    "lng": 121.543736,
    "country": "台北市"
  },
  {
    "location": "中山區",
    "address": "復興北路370號前方人行道(捷運中山國中站)",
    "lat": 25.060632,
    "lng": 121.544028,
    "country": "台北市"
  },
  {
    "location": "中山區",
    "address": "南京東路三段189號對面(南京遼寧街口東南側)(鄰近遼寧夜市)",
    "lat": 25.051761,
    "lng": 121.542168,
    "country": "台北市"
  },
  {
    "location": "中山區",
    "address": "伊通街/長安東路二段(交叉口西南側路側)(鄰近袖珍博物館/樹火紀念紙博物館)",
    "lat": 25.048334,
    "lng": 121.534693,
    "country": "台北市"
  },
  {
    "location": "中山區",
    "address": "松江路/松江路84巷(西北側路側)(鄰近樹火紀念紙博物館)",
    "lat": 25.050245,
    "lng": 121.532725,
    "country": "台北市"
  },
  {
    "location": "中山區",
    "address": "民族東路410巷1號對面(第二果菜市場)",
    "lat": 25.067558,
    "lng": 121.538264,
    "country": "台北市"
  },
  {
    "location": "中山區",
    "address": "民族東路/吉林路口(西北側)(鄰近花博公園新生園區)",
    "lat": 25.068387,
    "lng": 121.530188,
    "country": "台北市"
  },
  {
    "location": "中山區",
    "address": "龍江路15號前方人行道(鄰近遼寧夜市)",
    "lat": 25.047617,
    "lng": 121.540431,
    "country": "台北市"
  },
  {
    "location": "中山區",
    "address": "林森北路/長春路口西北角人行道(林森長春路口)(鄰近林森公園/康樂公園)",
    "lat": 25.055062,
    "lng": 121.525383,
    "country": "台北市"
  },
  {
    "location": "中山區",
    "address": "民生東路三段/復興北路280巷10弄口(西北側)",
    "lat": 25.057923,
    "lng": 121.542732,
    "country": "台北市"
  },
  {
    "location": "中山區",
    "address": "民族東路/林森北路口(西北側)(鄰近花博公園美術園區)",
    "lat": 25.068507,
    "lng": 121.525322,
    "country": "台北市"
  },
  {
    "location": "中山區",
    "address": "民生東路一段23巷/民生東路一段27巷口(北側)",
    "lat": 25.058835,
    "lng": 121.52504,
    "country": "台北市"
  },
  {
    "location": "中山區",
    "address": "錦州街13巷/中山北路二段137巷口(東南側)(鄰近雙城街夜市)",
    "lat": 25.061568,
    "lng": 121.524392,
    "country": "台北市"
  },
  {
    "location": "中山區",
    "address": "一江街/松江路132巷口(西北側)(鄰近四平陽光商圈)",
    "lat": 25.05316,
    "lng": 121.53146,
    "country": "台北市"
  },
  {
    "location": "中山區",
    "address": "樂群二路/明水路口(東側)",
    "lat": 25.07983,
    "lng": 121.55236,
    "country": "台北市"
  },
  {
    "location": "中山區",
    "address": "民族西路/民族西路31巷口(東北側)(鄰近大同大學/花博公園圓山園區/花博圓山公園區-爭艷館/中山親子館)",
    "lat": 25.06859,
    "lng": 121.51974,
    "country": "台北市"
  },
  {
    "location": "中山區",
    "address": "南京西路6號(前方)(鄰近台北之家(光點台北))",
    "lat": 25.05225,
    "lng": 121.52193,
    "country": "台北市"
  },
  {
    "location": "中山區",
    "address": "民權東路三段/建國北路三段口(東北側)(鄰近建國假日花市)",
    "lat": 25.06252,
    "lng": 121.53754,
    "country": "台北市"
  },
  {
    "location": "中山區",
    "address": "民生東路三段/建國北路二段口",
    "lat": 25.057778,
    "lng": 121.536915,
    "country": "台北市"
  },
  {
    "location": "中山區",
    "address": "錦州街162號前方",
    "lat": 25.06029,
    "lng": 121.52981,
    "country": "台北市"
  },
  {
    "location": "中山區",
    "address": "新生北路一段/南京東路一段口(橋墩下方)(鄰近林森公園/康樂公園)",
    "lat": 25.051944,
    "lng": 121.527661,
    "country": "台北市"
  },
  {
    "location": "松山區",
    "address": "八德路/松信路(西南側)",
    "lat": 25.049845,
    "lng": 121.571885,
    "country": "台北市"
  },
  {
    "location": "松山區",
    "address": "光復北路/民生東路(西北側)",
    "lat": 25.05862,
    "lng": 121.55514,
    "country": "台北市"
  },
  {
    "location": "松山區",
    "address": "北寧路34號對側(鄰近台北田徑場)",
    "lat": 25.049408,
    "lng": 121.55261,
    "country": "台北市"
  },
  {
    "location": "松山區",
    "address": "敦化民生路口公車站旁",
    "lat": 25.057985,
    "lng": 121.548982,
    "country": "台北市"
  },
  {
    "location": "松山區",
    "address": "八德路四段91巷(中崙高中)旁(鄰近京華城/中保寶貝城(BabyBossCity))",
    "lat": 25.04878,
    "lng": 121.56087,
    "country": "台北市"
  },
  {
    "location": "松山區",
    "address": "民權東路四段/新中街交叉口",
    "lat": 25.062002,
    "lng": 121.560186,
    "country": "台北市"
  },
  {
    "location": "松山區",
    "address": "敦化北路3號(鄰近臺北小巨蛋/台北田徑場)",
    "lat": 25.049505,
    "lng": 121.549408,
    "country": "台北市"
  },
  {
    "location": "松山區",
    "address": "民生東路五段/三民路口(西北側)(鄰近松山親子館)",
    "lat": 25.059147,
    "lng": 121.56297,
    "country": "台北市"
  },
  {
    "location": "松山區",
    "address": "復興北路/民權東路三段(東北側)",
    "lat": 25.062344,
    "lng": 121.545138,
    "country": "台北市"
  },
  {
    "location": "松山區",
    "address": "撫遠街/富錦街(東南側)",
    "lat": 25.061567,
    "lng": 121.566558,
    "country": "台北市"
  },
  {
    "location": "松山區",
    "address": "民生東路五段/塔悠路(西南側)",
    "lat": 25.059245,
    "lng": 121.568883,
    "country": "台北市"
  },
  {
    "location": "松山區",
    "address": "南京東路五段/三民路(西北側)",
    "lat": 25.051562,
    "lng": 121.562891,
    "country": "台北市"
  },
  {
    "location": "松山區",
    "address": "南京東路四段/健康路(東北側)(鄰近台北田徑場)",
    "lat": 25.051702,
    "lng": 121.553057,
    "country": "台北市"
  },
  {
    "location": "松山區",
    "address": "南京東路三段/南京東路三段256巷(東南側)",
    "lat": 25.051618,
    "lng": 121.544847,
    "country": "台北市"
  },
  {
    "location": "松山區",
    "address": "八德路/松信路(西南側)",
    "lat": 25.049845,
    "lng": 121.571885,
    "country": "台北市"
  },
  {
    "location": "松山區",
    "address": "八德路二段342號東側人行道(鄰近微風廣場/黑松世界)",
    "lat": 25.047805,
    "lng": 121.545022,
    "country": "台北市"
  },
  {
    "location": "松山區",
    "address": "市民大道五段193號前方人行道(鄰近台北機廠)",
    "lat": 25.04846,
    "lng": 121.565928,
    "country": "台北市"
  },
  {
    "location": "松山區",
    "address": "光復南路23號對面人行道",
    "lat": 25.046914,
    "lng": 121.557674,
    "country": "台北市"
  },
  {
    "location": "松山區",
    "address": "健康路177號前人行道(健康新城)",
    "lat": 25.054095,
    "lng": 121.560928,
    "country": "台北市"
  },
  {
    "location": "松山區",
    "address": "松山路/市民大道六段(西北側捷運3號出口)(鄰近饒河街夜市/彩虹橋)",
    "lat": 25.049616,
    "lng": 121.577459,
    "country": "台北市"
  },
  {
    "location": "松山區",
    "address": "敦化北路/富錦街口(東北側)",
    "lat": 25.060746,
    "lng": 121.550711,
    "country": "台北市"
  },
  {
    "location": "松山區",
    "address": "健康路325巷/健康路325巷12弄口(東北側)",
    "lat": 25.055672,
    "lng": 121.567127,
    "country": "台北市"
  },
  {
    "location": "松山區",
    "address": "光復北路/光復北路190巷口(東南側)",
    "lat": 25.05447,
    "lng": 121.556098,
    "country": "台北市"
  },
  {
    "location": "松山區",
    "address": "敦化北路/敦化北路120巷口(西南側)(鄰近臺北小巨蛋)",
    "lat": 25.053614,
    "lng": 121.54872,
    "country": "台北市"
  },
  {
    "location": "松山區",
    "address": "敦化北路244巷/民權東路三段160巷口(西南側)",
    "lat": 25.060911,
    "lng": 121.54763,
    "country": "台北市"
  },
  {
    "location": "松山區",
    "address": "南京東路五段204號(前方)",
    "lat": 25.051287,
    "lng": 121.564262,
    "country": "台北市"
  },
  {
    "location": "松山區",
    "address": "八德路四段106巷6弄2號(東側)(鄰近京華城/中保寶貝城(BabyBossCity)/台北機廠)",
    "lat": 25.047428,
    "lng": 121.561182,
    "country": "台北市"
  },
  {
    "location": "松山區",
    "address": "南京東路四段182號(北側)",
    "lat": 25.05143,
    "lng": 121.55716,
    "country": "台北市"
  },
  {
    "location": "松山區",
    "address": "民生東路五段82號(東側)",
    "lat": 25.05794,
    "lng": 121.55945,
    "country": "台北市"
  },
  {
    "location": "松山區",
    "address": "三民路41號(東側)",
    "lat": 25.05601,
    "lng": 121.56358,
    "country": "台北市"
  },
  {
    "location": "松山區",
    "address": "市民大道四段63號(鄰近微風廣場/黑松世界)",
    "lat": 25.04525,
    "lng": 121.546635,
    "country": "台北市"
  },
  {
    "location": "松山區",
    "address": "塔悠路/撫遠街389巷口(南側)",
    "lat": 25.064713,
    "lng": 121.567899,
    "country": "台北市"
  },
  {
    "location": "松山區",
    "address": "長春路339巷/復興北路189巷口",
    "lat": 25.05491,
    "lng": 121.5448,
    "country": "台北市"
  },
  {
    "location": "松山區",
    "address": "南京東路五段/東興路口(北側)",
    "lat": 25.051489,
    "lng": 121.565347,
    "country": "台北市"
  },
  {
    "location": "松山區",
    "address": "三民路/新東街51巷口(東側)(鄰近松山親子館)",
    "lat": 25.061501,
    "lng": 121.563318,
    "country": "台北市"
  },
  {
    "location": "大安區",
    "address": "臺北市長興街131號",
    "lat": 25.014828,
    "lng": 121.548456,
    "country": "臺北市"
  },
  {
    "location": "大安區",
    "address": "臺北市長興街131號",
    "lat": 25.014847,
    "lng": 121.548555,
    "country": "臺北市"
  },
  {
    "location": "大安區",
    "address": "臺北市長興街131號",
    "lat": 25.014609,
    "lng": 121.547346,
    "country": "臺北市"
  },
  {
    "location": "大安區",
    "address": "臺北市長興街134號",
    "lat": 25.013899,
    "lng": 121.54853,
    "country": "臺北市"
  },
  {
    "location": "大安區",
    "address": "臺北市大安區信義路2段166號",
    "lat": 25.034183,
    "lng": 121.527621,
    "country": "臺北市"
  },
  {
    "location": "大安區",
    "address": "臺北市大安區信義路2段166號",
    "lat": 25.034183,
    "lng": 121.527621,
    "country": "臺北市"
  },
  {
    "location": "信義區",
    "address": "臺北市市府路1號",
    "lat": 25.037851,
    "lng": 121.564568,
    "country": "臺北市"
  },
  {
    "location": "信義區",
    "address": "臺北市市府路1號",
    "lat": 25.037851,
    "lng": 121.564568,
    "country": "臺北市"
  },
  {
    "location": "信義區",
    "address": "臺北市市府路1號",
    "lat": 25.037851,
    "lng": 121.564568,
    "country": "臺北市"
  },
  {
    "location": "信義區",
    "address": "臺北市市府路1號",
    "lat": 25.037214,
    "lng": 121.564472,
    "country": "臺北市"
  },
  {
    "location": "信義區",
    "address": "臺北市市府路1號",
    "lat": 25.037214,
    "lng": 121.564472,
    "country": "臺北市"
  },
  {
    "location": "信義區",
    "address": "臺北市市府路1號",
    "lat": 25.037214,
    "lng": 121.564472,
    "country": "臺北市"
  },
  {
    "location": "松山區",
    "address": "臺北市富錦街389巷12弄18號",
    "lat": 25.061298,
    "lng": 121.558354,
    "country": "臺北市"
  },
  {
    "location": "松山區",
    "address": "臺北市松山區民權國小旁",
    "lat": 25.061278,
    "lng": 121.558267,
    "country": "臺北市"
  },
  {
    "location": "信義區",
    "address": "台北市信義路5段150巷",
    "lat": 25.030367,
    "lng": 121.569993,
    "country": "臺北市"
  },
  {
    "location": "信義區",
    "address": "台北市信義路5段150巷",
    "lat": 25.030284,
    "lng": 121.569924,
    "country": "臺北市"
  },
  {
    "location": "信義區",
    "address": "吳興街156巷40弄與吳興街118巷間",
    "lat": 25.028616,
    "lng": 121.559605,
    "country": "臺北市"
  },
  {
    "location": "信義區",
    "address": "臺北市吳興街220巷59弄13號對面",
    "lat": 25.027111,
    "lng": 121.561012,
    "country": "臺北市"
  },
  {
    "location": "信義區",
    "address": "松智路與松壽路口",
    "lat": 25.036876,
    "lng": 121.564929,
    "country": "臺北市"
  },
  {
    "location": "信義區",
    "address": "松智路東側(松高路至信義路5段)",
    "lat": 25.03747,
    "lng": 121.56582,
    "country": "臺北市"
  },
  {
    "location": "信義區",
    "address": "松智路東側(松高路至信義路6段)",
    "lat": 25.035352,
    "lng": 121.565635,
    "country": "臺北市"
  },
  {
    "location": "信義區",
    "address": "台北市信義區松智路",
    "lat": 25.03418,
    "lng": 121.56557,
    "country": "臺北市"
  },
  {
    "location": "信義區",
    "address": "台北市信義區信義路五段150巷342弄",
    "lat": 25.026832,
    "lng": 121.574429,
    "country": "臺北市"
  },
  {
    "location": "信義區",
    "address": "臺北市信義區福德街與大道路口東北側",
    "lat": 25.038427,
    "lng": 121.583981,
    "country": "臺北市"
  },
  {
    "location": "信義區",
    "address": "臺北市信義區忠孝東露5段558號旁",
    "lat": 25.042468,
    "lng": 121.58077,
    "country": "臺北市"
  },
  {
    "location": "信義區",
    "address": "臺北市信義區林口街84號對面",
    "lat": 25.038714,
    "lng": 121.579014,
    "country": "臺北市"
  },
  {
    "location": "信義區",
    "address": "臺北市信義區松德路180巷11號對面",
    "lat": 25.035385,
    "lng": 121.573112,
    "country": "臺北市"
  },
  {
    "location": "信義區",
    "address": "臺北市信義區永吉路30巷157巷",
    "lat": 25.04222,
    "lng": 121.56997,
    "country": "臺北市"
  },
  {
    "location": "信義區",
    "address": "臺北市信義區松平路81號",
    "lat": 25.030577,
    "lng": 121.56664,
    "country": "臺北市"
  },
  {
    "location": "信義區",
    "address": "臺北市信義區松勤街18號對面",
    "lat": 25.03218,
    "lng": 121.559961,
    "country": "臺北市"
  },
  {
    "location": "信義區",
    "address": "台北市信義區興雅路",
    "lat": 25.040136,
    "lng": 121.567873,
    "country": "臺北市"
  },
  {
    "location": "大安區",
    "address": "臺北市大安區富陽街底",
    "lat": 25.016597,
    "lng": 121.557172,
    "country": "臺北市"
  },
  {
    "location": "大安區",
    "address": "復興南路1段135巷口",
    "lat": 25.042428,
    "lng": 121.54531,
    "country": "臺北市"
  },
  {
    "location": "大安區",
    "address": "臺北市延吉街131巷41號對面",
    "lat": 25.042638,
    "lng": 121.555708,
    "country": "臺北市"
  },
  {
    "location": "大安區",
    "address": "臺北市大安區延吉街131巷26號旁",
    "lat": 25.042602,
    "lng": 121.555743,
    "country": "臺北市"
  },
  {
    "location": "大安區",
    "address": "辛亥路2段171巷21號對面",
    "lat": 25.022476,
    "lng": 121.541087,
    "country": "臺北市"
  },
  {
    "location": "大安區",
    "address": "和平東路2段118巷6弄4號對面",
    "lat": 25.02346,
    "lng": 121.542739,
    "country": "臺北市"
  },
  {
    "location": "大安區",
    "address": "辛亥路1段與溫州街交口",
    "lat": 25.021818,
    "lng": 121.533043,
    "country": "臺北市"
  },
  {
    "location": "大安區",
    "address": "臺北市大安區永康街10-3號對面",
    "lat": 25.031734,
    "lng": 121.529623,
    "country": "臺北市"
  },
  {
    "location": "大安區",
    "address": "台北市大安區復興南路二段151巷6-10號",
    "lat": 25.020919,
    "lng": 121.545332,
    "country": "臺北市"
  },
  {
    "location": "大安區",
    "address": "台北市大安區復興南路二段151巷6-10號",
    "lat": 25.020919,
    "lng": 121.545332,
    "country": "臺北市"
  },
  {
    "location": "大安區",
    "address": "臺北市大安區泰順街36號對面",
    "lat": 25.024623,
    "lng": 121.531626,
    "country": "臺北市"
  },
  {
    "location": "大安區",
    "address": "臺北市大安區敦化南路2段331巷口旁",
    "lat": 25.022547,
    "lng": 121.549398,
    "country": "臺北市"
  },
  {
    "location": "大安區",
    "address": "臺北市大安區辛亥路1段139巷口旁",
    "lat": 25.022659,
    "lng": 121.532818,
    "country": "臺北市"
  },
  {
    "location": "大安區",
    "address": "臺北市大安區和平東路3段308巷內",
    "lat": 25.019833,
    "lng": 121.556042,
    "country": "臺北市"
  },
  {
    "location": "中山區",
    "address": "臺北市新生北路三段105號",
    "lat": 25.068788,
    "lng": 121.53243,
    "country": "臺北市"
  },
  {
    "location": "中山區",
    "address": "臺北市北安路534之1號",
    "lat": 25.079548,
    "lng": 121.546831,
    "country": "臺北市"
  },
  {
    "location": "中山區",
    "address": "臺北市中山區松江路126號",
    "lat": 25.051352,
    "lng": 121.532918,
    "country": "臺北市"
  },
  {
    "location": "中山區",
    "address": "臺北市中山區松江路126號",
    "lat": 25.051352,
    "lng": 121.532918,
    "country": "臺北市"
  },
  {
    "location": "中山區",
    "address": "臺北市松江路316號",
    "lat": 25.059975,
    "lng": 121.533192,
    "country": "臺北市"
  },
  {
    "location": "中山區",
    "address": "臺北市松江路316號",
    "lat": 25.059975,
    "lng": 121.533192,
    "country": "臺北市"
  },
  {
    "location": "中山區",
    "address": "臺北市民權東路1段71號",
    "lat": 25.062701,
    "lng": 121.526682,
    "country": "臺北市"
  },
  {
    "location": "中山區",
    "address": "臺北市民權東路1段71號",
    "lat": 25.062701,
    "lng": 121.526682,
    "country": "臺北市"
  },
  {
    "location": "中山區",
    "address": "中山區北路東側美術公園",
    "lat": 25.069227,
    "lng": 121.523767,
    "country": "臺北市"
  },
  {
    "location": "中山區",
    "address": "中山區北路東側美術公園",
    "lat": 25.070027,
    "lng": 121.523968,
    "country": "臺北市"
  },
  {
    "location": "中山區",
    "address": "臺北市中山區北路三段東側",
    "lat": 25.07088,
    "lng": 121.52527,
    "country": "臺北市"
  },
  {
    "location": "中山區",
    "address": "新生北路三段105號",
    "lat": 25.07026,
    "lng": 121.52962,
    "country": "臺北市"
  },
  {
    "location": "中山區",
    "address": "大佳河濱公園",
    "lat": 25.07487,
    "lng": 121.53023,
    "country": "臺北市"
  },
  {
    "location": "中山區",
    "address": "大佳河濱公園",
    "lat": 25.074392,
    "lng": 121.532143,
    "country": "臺北市"
  },
  {
    "location": "中山區",
    "address": "大佳河濱公園",
    "lat": 25.07542,
    "lng": 121.53472,
    "country": "臺北市"
  },
  {
    "location": "中山區",
    "address": "大佳河濱公園",
    "lat": 25.074618,
    "lng": 121.535579,
    "country": "臺北市"
  },
  {
    "location": "中山區",
    "address": "大佳河濱公園",
    "lat": 25.07556,
    "lng": 121.53695,
    "country": "臺北市"
  },
  {
    "location": "中山區",
    "address": "大佳河濱公園",
    "lat": 25.07411,
    "lng": 121.53779,
    "country": "臺北市"
  },
  {
    "location": "中山區",
    "address": "大佳河濱公園",
    "lat": 25.0737,
    "lng": 121.53864,
    "country": "臺北市"
  },
  {
    "location": "中山區",
    "address": "大佳河濱公園",
    "lat": 25.074648,
    "lng": 121.539313,
    "country": "臺北市"
  },
  {
    "location": "中山區",
    "address": "臺北市中山區濱江街107號大佳國小後方",
    "lat": 25.074576,
    "lng": 121.535284,
    "country": "臺北市"
  },
  {
    "location": "中山區",
    "address": "臺北市中山區松江路126號",
    "lat": 25.05213,
    "lng": 121.533256,
    "country": "臺北市"
  },
  {
    "location": "中山區",
    "address": "臺北市中山區松江路126號",
    "lat": 25.05213,
    "lng": 121.533256,
    "country": "臺北市"
  },
  {
    "location": "中山區",
    "address": "臺北市長安西路39號",
    "lat": 25.050625,
    "lng": 121.518721,
    "country": "臺北市"
  },
  {
    "location": "中山區",
    "address": "民權東路三段1號(民權東路建國北路)",
    "lat": 25.06396,
    "lng": 121.53841,
    "country": "臺北市"
  },
  {
    "location": "中山區",
    "address": "民權東路三段1號(民權東路建國北路)",
    "lat": 25.063579,
    "lng": 121.539165,
    "country": "臺北市"
  },
  {
    "location": "中山區",
    "address": "南京東路一段,林森北路右側.",
    "lat": 25.05286,
    "lng": 121.52633,
    "country": "臺北市"
  },
  {
    "location": "中山區",
    "address": "台北市新生北路2段28巷5號",
    "lat": 25.05379,
    "lng": 121.52649,
    "country": "臺北市"
  },
  {
    "location": "中山區",
    "address": "臺北市中山區南京東路1段88號(林森公園)",
    "lat": 25.052996,
    "lng": 121.526418,
    "country": "臺北市"
  },
  {
    "location": "中山區",
    "address": "金山北路與八德路一段口附近",
    "lat": 25.044894,
    "lng": 121.530377,
    "country": "臺北市"
  },
  {
    "location": "中山區",
    "address": "臺北市長安西路3號",
    "lat": 25.05007,
    "lng": 121.52101,
    "country": "臺北市"
  },
  {
    "location": "中山區",
    "address": "臺北市中山區北路三段",
    "lat": 25.07067,
    "lng": 121.52147,
    "country": "臺北市"
  },
  {
    "location": "中山區",
    "address": "臺北市中山區北路三段",
    "lat": 25.07035,
    "lng": 121.5205,
    "country": "臺北市"
  },
  {
    "location": "中山區",
    "address": "臺北市中山區北路三段",
    "lat": 25.07069,
    "lng": 121.52203,
    "country": "臺北市"
  },
  {
    "location": "中山區",
    "address": "臺北市市民大道2段與天津街西北側",
    "lat": 25.04833,
    "lng": 121.52189,
    "country": "臺北市"
  },
  {
    "location": "中山區",
    "address": "臺北市林森北路與市民大道2段口東北側",
    "lat": 25.04809,
    "lng": 121.52472,
    "country": "臺北市"
  },
  {
    "location": "中山區",
    "address": "臺北市中山區北安路口圓山飯店下方",
    "lat": 25.076828,
    "lng": 121.527272,
    "country": "臺北市"
  },
  {
    "location": "中山區",
    "address": "台北市松山區民族東路512巷26號對面",
    "lat": 25.06689,
    "lng": 121.54214,
    "country": "臺北市"
  },
  {
    "location": "中山區",
    "address": "台北市中山區合江街137號對面",
    "lat": 25.06136,
    "lng": 121.53943,
    "country": "臺北市"
  },
  {
    "location": "中山區",
    "address": "臺北市中山區北安路588巷23弄5號對面",
    "lat": 25.081331,
    "lng": 121.550789,
    "country": "臺北市"
  },
  {
    "location": "中山區",
    "address": "台北市中山區大直街52巷26號旁",
    "lat": 25.08237,
    "lng": 121.54518,
    "country": "臺北市"
  },
  {
    "location": "中山區",
    "address": "臺北市中山區伊通街97-2號對面",
    "lat": 25.053126,
    "lng": 121.534636,
    "country": "臺北市"
  },
  {
    "location": "中山區",
    "address": "台北市中山區松江路184巷27號",
    "lat": 25.05638,
    "lng": 121.53187,
    "country": "臺北市"
  },
  {
    "location": "中山區",
    "address": "臺北市中山區吉林路51巷20號對面",
    "lat": 25.053317,
    "lng": 121.531308,
    "country": "臺北市"
  },
  {
    "location": "中山區",
    "address": "臺北市中山區民生東路2段127巷23號",
    "lat": 25.06022,
    "lng": 121.53245,
    "country": "臺北市"
  },
  {
    "location": "中山區",
    "address": "臺北市中山區吉林路461巷內",
    "lat": 25.067409,
    "lng": 121.531511,
    "country": "臺北市"
  },
  {
    "location": "中山區",
    "address": "臺北市中山區合江街27號對面",
    "lat": 25.05533,
    "lng": 121.539066,
    "country": "臺北市"
  },
  {
    "location": "中山區",
    "address": "臺北市中山區興安街53-5號對面",
    "lat": 25.056045,
    "lng": 121.541809,
    "country": "臺北市"
  },
  {
    "location": "中山區",
    "address": "臺北市文山區中山區北路二段27巷17號對面",
    "lat": 25.053541,
    "lng": 121.524648,
    "country": "臺北市"
  },
  {
    "location": "中山區",
    "address": "臺北市中山區樂群二路116巷61弄8號旁",
    "lat": 25.07755,
    "lng": 121.55538,
    "country": "臺北市"
  },
  {
    "location": "中山區",
    "address": "臺北市中山區樂群二路266巷112號旁",
    "lat": 25.076592,
    "lng": 121.561813,
    "country": "臺北市"
  },
  {
    "location": "中山區",
    "address": "臺北市中山區堤頂大道二段246巷3-9號旁",
    "lat": 25.076997,
    "lng": 121.566344,
    "country": "臺北市"
  },
  {
    "location": "中山區",
    "address": "臺北市中山區中山區北路3段22號前",
    "lat": 25.064571,
    "lng": 121.522065,
    "country": "臺北市"
  },
  {
    "location": "大安區",
    "address": "文山區萬美街1段36號旁",
    "lat": 25.002398,
    "lng": 121.569824,
    "country": "臺北市"
  },
  {
    "location": "大安區",
    "address": "臺北市建國南路2段",
    "lat": 25.032738,
    "lng": 121.536303,
    "country": "臺北市"
  },
  {
    "location": "大安區",
    "address": "臺北市建國南路2段",
    "lat": 25.032531,
    "lng": 121.535963,
    "country": "臺北市"
  },
  {
    "location": "大安區",
    "address": "臺北市建國南路2段",
    "lat": 25.03178,
    "lng": 121.535963,
    "country": "臺北市"
  },
  {
    "location": "信義區",
    "address": "台北市信義區福德街251巷巷底",
    "lat": 25.03216,
    "lng": 121.59095,
    "country": "臺北市"
  },
  {
    "location": "中山區",
    "address": "臺北市民權西路72號",
    "lat": 25.062605,
    "lng": 121.519547,
    "country": "臺北市"
  },
  {
    "location": "中山區",
    "address": "臺北市民權西路72號",
    "lat": 25.06303,
    "lng": 121.519788,
    "country": "臺北市"
  },
  {
    "location": "中山區",
    "address": "臺北市民權西路72號",
    "lat": 25.06303,
    "lng": 121.519788,
    "country": "臺北市"
  },
  {
    "location": "中山區",
    "address": "臺北市民生西路47號",
    "lat": 25.057496,
    "lng": 121.520579,
    "country": "臺北市"
  },
  {
    "location": "中山區",
    "address": "雙連站及中山區站間地下街",
    "lat": 25.055401,
    "lng": 121.520545,
    "country": "臺北市"
  },
  {
    "location": "中山區",
    "address": "雙連站及中山區站間地下街",
    "lat": 25.055401,
    "lng": 121.520545,
    "country": "臺北市"
  },
  {
    "location": "中山區",
    "address": "臺北市南京西路16號",
    "lat": 25.052423,
    "lng": 121.520302,
    "country": "臺北市"
  },
  {
    "location": "大安區",
    "address": "臺北市和平東路3段410號",
    "lat": 25.01864,
    "lng": 121.5586,
    "country": "臺北市"
  },
  {
    "location": "大安區",
    "address": "臺北市和平東路3段168號",
    "lat": 25.023878,
    "lng": 121.552755,
    "country": "臺北市"
  },
  {
    "location": "大安區",
    "address": "臺北市復興南路2段235號",
    "lat": 25.026134,
    "lng": 121.543472,
    "country": "臺北市"
  },
  {
    "location": "大安區",
    "address": "臺北市信義路4段2號",
    "lat": 25.033164,
    "lng": 121.544005,
    "country": "臺北市"
  },
  {
    "location": "大安區",
    "address": "台北市忠孝東路3段302號",
    "lat": 25.041263,
    "lng": 121.543247,
    "country": "臺北市"
  },
  {
    "location": "中山區",
    "address": "臺北市南京東路3段253號",
    "lat": 25.052392,
    "lng": 121.544527,
    "country": "臺北市"
  },
  {
    "location": "中山區",
    "address": "臺北市復興北路376號",
    "lat": 25.060836,
    "lng": 121.544022,
    "country": "臺北市"
  },
  {
    "location": "信義區",
    "address": "臺北市忠孝東路5段2號",
    "lat": 25.040958,
    "lng": 121.565295,
    "country": "臺北市"
  },
  {
    "location": "信義區",
    "address": "臺北市忠孝東路4段400號",
    "lat": 25.041181,
    "lng": 121.558541,
    "country": "臺北市"
  },
  {
    "location": "大安區",
    "address": "臺北市忠孝東路4段182號",
    "lat": 25.041347,
    "lng": 121.551494,
    "country": "臺北市"
  },
  {
    "location": "大安區",
    "address": "台北市忠孝東路4段47號",
    "lat": 25.04178,
    "lng": 121.543736,
    "country": "臺北市"
  },
  {
    "location": "大安區",
    "address": "臺北市新生南路1段67號",
    "lat": 25.042746,
    "lng": 121.531944,
    "country": "臺北市"
  },
  {
    "location": "大安區",
    "address": "臺北市新生南路1段67號",
    "lat": 25.041235,
    "lng": 121.532353,
    "country": "臺北市"
  },
  {
    "location": "大安區",
    "address": "臺北市新生南路1段67號",
    "lat": 25.041235,
    "lng": 121.532353,
    "country": "臺北市"
  },
  {
    "location": "信義區",
    "address": "臺北市忠孝東路5段455號",
    "lat": 25.040836,
    "lng": 121.576648,
    "country": "臺北市"
  },
  {
    "location": "信義區",
    "address": "臺北市信義路4段212之1號",
    "lat": 25.033316,
    "lng": 121.553587,
    "country": "臺北市"
  },
  {
    "location": "信義區",
    "address": "臺北市信義路4段212號",
    "lat": 25.033316,
    "lng": 121.553587,
    "country": "臺北市"
  },
  {
    "location": "信義區",
    "address": "臺北市信義路5段20號",
    "lat": 25.033078,
    "lng": 121.563592,
    "country": "臺北市"
  },
  {
    "location": "信義區",
    "address": "臺北市信義路5段20號",
    "lat": 25.033078,
    "lng": 121.563592,
    "country": "臺北市"
  },
  {
    "location": "信義區",
    "address": "臺北市信義路5段152號",
    "lat": 25.032733,
    "lng": 121.569546,
    "country": "臺北市"
  },
  {
    "location": "信義區",
    "address": "臺北市信義路5段152號",
    "lat": 25.032733,
    "lng": 121.569546,
    "country": "臺北市"
  },
  {
    "location": "大安區",
    "address": "臺北市信義路4段2號",
    "lat": 25.033593,
    "lng": 121.542027,
    "country": "臺北市"
  },
  {
    "location": "大安區",
    "address": "臺北市信義路4段2號",
    "lat": 25.033593,
    "lng": 121.542027,
    "country": "臺北市"
  },
  {
    "location": "大安區",
    "address": "臺北市信義路3段100號",
    "lat": 25.033416,
    "lng": 121.535783,
    "country": "臺北市"
  },
  {
    "location": "大安區",
    "address": "臺北市信義路3段100號",
    "lat": 25.033416,
    "lng": 121.535783,
    "country": "臺北市"
  },
  {
    "location": "松山區",
    "address": "臺北市八德路4段742號",
    "lat": 25.050361,
    "lng": 121.578119,
    "country": "臺北市"
  },
  {
    "location": "松山區",
    "address": "台北市松山區撫遠街298號",
    "lat": 25.06179,
    "lng": 121.56765,
    "country": "臺北市"
  },
  {
    "location": "松山區",
    "address": "臺北市松山區撫遠街298號對面",
    "lat": 25.061379,
    "lng": 121.56675,
    "country": "臺北市"
  },
  {
    "location": "松山區",
    "address": "八德路三段與敦化北路",
    "lat": 25.0484,
    "lng": 121.55008,
    "country": "臺北市"
  },
  {
    "location": "松山區",
    "address": "台北市民生東路4段133號",
    "lat": 25.058341,
    "lng": 121.554839,
    "country": "臺北市"
  },
  {
    "location": "松山區",
    "address": "臺北市南京東路4段2號",
    "lat": 25.05115,
    "lng": 121.55023,
    "country": "臺北市"
  },
  {
    "location": "松山區",
    "address": "台北市民生東路5段36巷4弄17號",
    "lat": 25.057544,
    "lng": 121.557821,
    "country": "臺北市"
  },
  {
    "location": "松山區",
    "address": "台北市松山區新東街41之7號",
    "lat": 25.060523,
    "lng": 121.565426,
    "country": "臺北市"
  },
  {
    "location": "松山區",
    "address": "臺北市松山區八德路3段12巷52弄3號對面",
    "lat": 25.046403,
    "lng": 121.550507,
    "country": "臺北市"
  },
  {
    "location": "松山區",
    "address": "臺北市松山區八德路3段與延吉街交口",
    "lat": 25.0479,
    "lng": 121.55351,
    "country": "臺北市"
  },
  {
    "location": "松山區",
    "address": "臺北市松山區寶清街111巷40號",
    "lat": 25.05411,
    "lng": 121.56894,
    "country": "臺北市"
  },
  {
    "location": "松山區",
    "address": "臺北市松山區寶寶清街30巷22號",
    "lat": 25.052155,
    "lng": 121.567676,
    "country": "臺北市"
  },
  {
    "location": "松山區",
    "address": "臺北市松山區南京東路5段251１巷50弄13號",
    "lat": 25.053873,
    "lng": 121.564043,
    "country": "臺北市"
  },
  {
    "location": "松山區",
    "address": "臺北市松山區民權東路3段160巷15號",
    "lat": 25.060756,
    "lng": 121.547639,
    "country": "臺北市"
  },
  {
    "location": "信義區",
    "address": "臺北市松山區忠孝東路五段703巷1弄24號對面",
    "lat": 25.04231,
    "lng": 121.57916,
    "country": "臺北市"
  },
  {
    "location": "松山區",
    "address": "臺北市松山區敦化北路4巷",
    "lat": 25.04999,
    "lng": 121.54596,
    "country": "臺北市"
  },
  {
    "location": "松山區",
    "address": "臺北市松山區慶城街16巷7號對面",
    "lat": 25.05324,
    "lng": 121.54617,
    "country": "臺北市"
  },
  {
    "location": "松山區",
    "address": "臺北市松山區健康路325巷12弄28號左前方",
    "lat": 25.05568,
    "lng": 121.56855,
    "country": "臺北市"
  },
  {
    "location": "松山區",
    "address": "臺北市松山區民生東路5段與撫遠街交口附近",
    "lat": 25.05902,
    "lng": 121.56834,
    "country": "臺北市"
  },
  {
    "location": "松山區",
    "address": "臺北市松山區寧安街60巷1號對面",
    "lat": 25.05075,
    "lng": 121.55482,
    "country": "臺北市"
  },
  {
    "location": "中山區",
    "address": "臺北市中山區民生東路一段23巷44號對面",
    "lat": 25.058863,
    "lng": 121.525055,
    "country": "臺北市"
  },
  {
    "location": "中山區",
    "address": "臺北市中山區新生北路三段11巷63號對面",
    "lat": 25.063504,
    "lng": 121.530064,
    "country": "臺北市"
  },
  {
    "location": "中山區",
    "address": "臺北市中山區中原街106號對面",
    "lat": 25.060629,
    "lng": 121.529096,
    "country": "臺北市"
  },
  {
    "location": "大安區",
    "address": "臺北市長興街131號",
    "lat": 25.014329,
    "lng": 121.548869,
    "country": "臺北市"
  },
  {
    "location": "大安區",
    "address": "臺北市長興街131號",
    "lat": 25.014614,
    "lng": 121.547601,
    "country": "臺北市"
  },
  {
    "location": "大安區",
    "address": "臺北市長興街131號",
    "lat": 25.015032,
    "lng": 121.551012,
    "country": "臺北市"
  },
  {
    "location": "中山區",
    "address": "臺北市長安西路3號2樓",
    "lat": 25.05032,
    "lng": 121.52121,
    "country": "臺北市"
  },
  {
    "location": "松山區",
    "address": "臺北市光復北路266號3樓",
    "lat": 25.059163,
    "lng": 121.554683,
    "country": "臺北市"
  },
  {
    "location": "大安區",
    "address": "臺北市長興街131號",
    "lat": 25.014618,
    "lng": 121.547374,
    "country": "臺北市"
  },
  {
    "location": "松山區",
    "address": "臺北市光復北路266號2樓",
    "lat": 25.059392,
    "lng": 121.554656,
    "country": "臺北市"
  },
  {
    "location": "大安區",
    "address": "臺北市長興街131號",
    "lat": 25.014659,
    "lng": 121.550375,
    "country": "臺北市"
  },
  {
    "location": "大安區",
    "address": "臺北市長興街131號",
    "lat": 25.01462,
    "lng": 121.550372,
    "country": "臺北市"
  },
  {
    "location": "松山區",
    "address": "台北市松山區民權東路5段41-1號",
    "lat": 25.064631,
    "lng": 121.567659,
    "country": "臺北市"
  },
  {
    "location": "文山區",
    "address": "老泉街    防汛道路",
    "lat": 24.977394,
    "lng": 121.560542
  },
  {
    "location": "文山區",
    "address": "木新路三段  232巷",
    "lat": 24.981324,
    "lng": 121.559114
  },
  {
    "location": "文山區",
    "address": "木新路三段  寶橋路",
    "lat": 24.98002,
    "lng": 121.554058
  },
  {
    "location": "文山區",
    "address": "老泉街    恆光橋頭",
    "lat": 24.979765,
    "lng": 121.567753
  },
  {
    "location": "文山區",
    "address": "木新路三段  一壽街",
    "lat": 24.980596,
    "lng": 121.556373
  },
  {
    "location": "文山區",
    "address": "木新路三段  310巷",
    "lat": 24.98081,
    "lng": 121.557159
  },
  {
    "location": "文山區",
    "address": "興隆路四段  122,213巷",
    "lat": 24.982646,
    "lng": 121.562337
  },
  {
    "location": "文山區",
    "address": "保儀路13巷  26巷",
    "lat": 24.988332,
    "lng": 121.568613
  },
  {
    "location": "文山區",
    "address": "恆光街    恆光橋",
    "lat": 24.982501,
    "lng": 121.567027
  },
  {
    "location": "文山區",
    "address": "木新路三段  278巷",
    "lat": 24.981054,
    "lng": 121.558068
  },
  {
    "location": "文山區",
    "address": "木新路三段  200號",
    "lat": 24.981512,
    "lng": 121.559942
  },
  {
    "location": "文山區",
    "address": "辛亥路七段  76巷",
    "lat": 24.981972,
    "lng": 121.553704
  },
  {
    "location": "文山區",
    "address": "木新路三段  155,172巷",
    "lat": 24.981737,
    "lng": 121.560909
  },
  {
    "location": "文山區",
    "address": "興隆路四段  木新路三段",
    "lat": 24.982116,
    "lng": 121.56254
  },
  {
    "location": "文山區",
    "address": "木新路三段  50巷",
    "lat": 24.982488,
    "lng": 121.564201
  },
  {
    "location": "文山區",
    "address": "木新路二段  保儀路 ",
    "lat": 24.982848,
    "lng": 121.565499
  },
  {
    "location": "文山區",
    "address": "辛亥路七段  忠順街一段",
    "lat": 24.983208,
    "lng": 121.554026
  },
  {
    "location": "文山區",
    "address": "忠順街一段  木新路三段310巷",
    "lat": 24.983312,
    "lng": 121.556317
  },
  {
    "location": "文山區",
    "address": "木新路二段  恆光街",
    "lat": 24.983301,
    "lng": 121.566729
  },
  {
    "location": "文山區",
    "address": "木新路二段161巷  12弄",
    "lat": 24.9832,
    "lng": 121.569145
  },
  {
    "location": "文山區",
    "address": "木柵路一段  58,89巷",
    "lat": 24.986966,
    "lng": 121.547305
  },
  {
    "location": "文山區",
    "address": "忠順街一段  實踐國小",
    "lat": 24.983594,
    "lng": 121.557065
  },
  {
    "location": "文山區",
    "address": "興隆路四段  58巷",
    "lat": 24.985552,
    "lng": 121.561272
  },
  {
    "location": "文山區",
    "address": "木新路二段  161巷",
    "lat": 24.984014,
    "lng": 121.568787
  },
  {
    "location": "文山區",
    "address": "指南路二段  政大一街",
    "lat": 24.985829,
    "lng": 121.579815
  },
  {
    "location": "文山區",
    "address": "忠順街一段  26巷",
    "lat": 24.984085,
    "lng": 121.55913
  },
  {
    "location": "文山區",
    "address": "辛亥路七段  20巷",
    "lat": 24.986582,
    "lng": 121.553139
  },
  {
    "location": "文山區",
    "address": "興隆路四段  忠順街二段",
    "lat": 24.984468,
    "lng": 121.561676
  },
  {
    "location": "北投區",
    "address": "西安街一段  文林北路94巷",
    "lat": 25.107777,
    "lng": 121.519923
  },
  {
    "location": "文山區",
    "address": "辛亥路七段  光輝路50巷",
    "lat": 24.984844,
    "lng": 121.554181
  },
  {
    "location": "文山區",
    "address": "保儀路    忠順街二段",
    "lat": 24.984728,
    "lng": 121.566765
  },
  {
    "location": "文山區",
    "address": "指南路三段     2巷",
    "lat": 24.985356,
    "lng": 121.579933
  },
  {
    "location": "文山區",
    "address": "保儀路    永安街22巷",
    "lat": 24.986833,
    "lng": 121.56833
  },
  {
    "location": "文山區",
    "address": "木新路二段  永安街",
    "lat": 24.986623,
    "lng": 121.570645
  },
  {
    "location": "文山區",
    "address": "指南路二段  147巷",
    "lat": 24.987368,
    "lng": 121.577222
  },
  {
    "location": "文山區",
    "address": "木柵路三段66巷 台灣戲曲學校",
    "lat": 24.986874,
    "lng": 121.566769
  },
  {
    "location": "文山區",
    "address": "保儀路    景文高中",
    "lat": 24.985397,
    "lng": 121.56727
  },
  {
    "location": "文山區",
    "address": "下崙路    光輝路71巷",
    "lat": 24.986195,
    "lng": 121.556254
  },
  {
    "location": "文山區",
    "address": "萬美街一段  萬和街",
    "lat": 25.002067,
    "lng": 121.566799
  },
  {
    "location": "文山區",
    "address": "木柵路一段  和興路 ",
    "lat": 24.986741,
    "lng": 121.545977
  },
  {
    "location": "文山區",
    "address": "辛亥路七段  26巷",
    "lat": 24.986171,
    "lng": 121.553334
  },
  {
    "location": "文山區",
    "address": "興隆路四段  下崙路",
    "lat": 24.986628,
    "lng": 121.560914
  },
  {
    "location": "文山區",
    "address": "木新路一段  指南路一段51巷",
    "lat": 24.9887,
    "lng": 121.570638
  },
  {
    "location": "文山區",
    "address": "木柵路一段  萬善橋頭(景美溪橋)",
    "lat": 24.986732,
    "lng": 121.545357
  },
  {
    "location": "文山區",
    "address": "木柵路一段  試院路(西)",
    "lat": 24.987257,
    "lng": 121.548944
  },
  {
    "location": "文山區",
    "address": "興隆路四段109巷       32弄",
    "lat": 24.986742,
    "lng": 121.562693
  },
  {
    "location": "文山區",
    "address": "木柵路三段48巷 興隆路四段109巷",
    "lat": 24.987042,
    "lng": 121.56585
  },
  {
    "location": "文山區",
    "address": "萬壽路    36號(指南山莊)",
    "lat": 24.988817,
    "lng": 121.577739
  },
  {
    "location": "文山區",
    "address": "木柵路四段  111巷",
    "lat": 24.997563,
    "lng": 121.573854
  },
  {
    "location": "文山區",
    "address": "興隆路四段109巷  92弄",
    "lat": 24.98682,
    "lng": 121.563507
  },
  {
    "location": "文山區",
    "address": "指南路二段  66巷",
    "lat": 24.987107,
    "lng": 121.578337
  },
  {
    "location": "文山區",
    "address": "木柵路一段  試院路(東)",
    "lat": 24.987436,
    "lng": 121.54999
  },
  {
    "location": "文山區",
    "address": "木柵路一段  191巷",
    "lat": 24.987659,
    "lng": 121.551305
  },
  {
    "location": "文山區",
    "address": "新光路一段  32巷",
    "lat": 24.989251,
    "lng": 121.573739
  },
  {
    "location": "文山區",
    "address": "景興路    282巷",
    "lat": 24.989469,
    "lng": 121.542393
  },
  {
    "location": "文山區",
    "address": "木柵路一段  辛亥路六段",
    "lat": 24.987802,
    "lng": 121.552324
  },
  {
    "location": "文山區",
    "address": "興隆路四段  46,105巷",
    "lat": 24.987642,
    "lng": 121.560544
  },
  {
    "location": "文山區",
    "address": "指南路一段  保儀路 ",
    "lat": 24.987638,
    "lng": 121.568591
  },
  {
    "location": "文山區",
    "address": "木新路一段  指南路一段",
    "lat": 24.987797,
    "lng": 121.570635
  },
  {
    "location": "文山區",
    "address": "指南路二段  政治大學",
    "lat": 24.987592,
    "lng": 121.576147
  },
  {
    "location": "文山區",
    "address": "指南路二段  萬壽路(單閃)",
    "lat": 24.987689,
    "lng": 121.575673
  },
  {
    "location": "信義區",
    "address": "福德街    福德街232巷",
    "lat": 25.038515,
    "lng": 121.584861
  },
  {
    "location": "文山區",
    "address": "木柵路二段  富山路",
    "lat": 24.988048,
    "lng": 121.553784
  },
  {
    "location": "文山區",
    "address": "木柵路二段  光輝路",
    "lat": 24.988161,
    "lng": 121.555096
  },
  {
    "location": "文山區",
    "address": "指南路二段  新光路一段",
    "lat": 24.988096,
    "lng": 121.573677
  },
  {
    "location": "文山區",
    "address": "羅斯福六段  滬江中學 ",
    "lat": 24.989898,
    "lng": 121.539481
  },
  {
    "location": "文山區",
    "address": "羅斯福六段  北新橋下",
    "lat": 24.988469,
    "lng": 121.539604
  },
  {
    "location": "文山區",
    "address": "木柵路一段  景文街(舊橋) ",
    "lat": 24.988416,
    "lng": 121.540847
  },
  {
    "location": "文山區",
    "address": "木柵路一段  景興路 ",
    "lat": 24.98829,
    "lng": 121.542153
  },
  {
    "location": "文山區",
    "address": "木柵路一段  世新專校",
    "lat": 24.988572,
    "lng": 121.543914
  },
  {
    "location": "文山區",
    "address": "辛亥路六段  86巷",
    "lat": 24.988849,
    "lng": 121.552378
  },
  {
    "location": "文山區",
    "address": "木柵路二段  中山國小",
    "lat": 24.98842,
    "lng": 121.556288
  },
  {
    "location": "文山區",
    "address": "木柵路二段138巷  興隆路四段105巷",
    "lat": 24.987764,
    "lng": 121.562231
  },
  {
    "location": "文山區",
    "address": "木柵路三段     48巷",
    "lat": 24.988371,
    "lng": 121.565273
  },
  {
    "location": "文山區",
    "address": "木柵路二段     2巷",
    "lat": 24.988706,
    "lng": 121.557599
  },
  {
    "location": "文山區",
    "address": "木柵路二段     54巷",
    "lat": 24.988741,
    "lng": 121.558915
  },
  {
    "location": "文山區",
    "address": "木柵路二段  興隆路四段",
    "lat": 24.988789,
    "lng": 121.560107
  },
  {
    "location": "文山區",
    "address": "木柵路二段  109巷",
    "lat": 24.988836,
    "lng": 121.561766
  },
  {
    "location": "文山區",
    "address": "木柵路三段  102巷",
    "lat": 24.988695,
    "lng": 121.567439
  },
  {
    "location": "文山區",
    "address": "秀明路二段  萬壽路",
    "lat": 24.988675,
    "lng": 121.577003
  },
  {
    "location": "文山區",
    "address": "木柵路二段  秀明路一段",
    "lat": 24.98906,
    "lng": 121.56315
  },
  {
    "location": "文山區",
    "address": "木柵路三段  保儀路",
    "lat": 24.988891,
    "lng": 121.568498
  },
  {
    "location": "文山區",
    "address": "景文街    景美國小",
    "lat": 24.989715,
    "lng": 121.540934
  },
  {
    "location": "文山區",
    "address": "興隆路四段  57巷",
    "lat": 24.989485,
    "lng": 121.5598
  },
  {
    "location": "文山區",
    "address": "秀明路一段  久康街",
    "lat": 24.989731,
    "lng": 121.564863
  },
  {
    "location": "文山區",
    "address": "秀明路二段  7巷",
    "lat": 24.991865,
    "lng": 121.57489
  },
  {
    "location": "文山區",
    "address": "羅斯福六段  育英街",
    "lat": 24.990325,
    "lng": 121.539779
  },
  {
    "location": "文山區",
    "address": "興隆路四段  再興中學",
    "lat": 24.990482,
    "lng": 121.5593
  },
  {
    "location": "文山區",
    "address": "秀明路一段  103巷",
    "lat": 24.990609,
    "lng": 121.566436
  },
  {
    "location": "文山區",
    "address": "木柵路三段  木柵國小",
    "lat": 24.990181,
    "lng": 121.570223
  },
  {
    "location": "文山區",
    "address": "秀明路一段  久康街135巷",
    "lat": 24.99061,
    "lng": 121.566457
  },
  {
    "location": "文山區",
    "address": "秀明路一段  191巷",
    "lat": 24.991721,
    "lng": 121.569751
  },
  {
    "location": "文山區",
    "address": "木柵路三段  木新路一段",
    "lat": 24.990616,
    "lng": 121.570892
  },
  {
    "location": "文山區",
    "address": "新光路一段  159巷",
    "lat": 24.992604,
    "lng": 121.573713
  },
  {
    "location": "文山區",
    "address": "羅斯福六段  車前路",
    "lat": 24.991563,
    "lng": 121.540287
  },
  {
    "location": "文山區",
    "address": "景興路    217巷(單閃)",
    "lat": 24.991932,
    "lng": 121.543863
  },
  {
    "location": "文山區",
    "address": "秀明路一段  185巷",
    "lat": 24.991458,
    "lng": 121.56831
  },
  {
    "location": "文山區",
    "address": "景興路    202巷",
    "lat": 24.991603,
    "lng": 121.543761
  },
  {
    "location": "文山區",
    "address": "木柵路四段  秀明路二段(萬壽橋)",
    "lat": 24.991715,
    "lng": 121.571115
  },
  {
    "location": "文山區",
    "address": "秀明路二段  新光路一段 ",
    "lat": 24.991714,
    "lng": 121.573662
  },
  {
    "location": "文山區",
    "address": "秀明路二段  112巷",
    "lat": 24.990663,
    "lng": 121.576836
  },
  {
    "location": "文山區",
    "address": "羅斯福六段  萬慶街",
    "lat": 24.992116,
    "lng": 121.54051
  },
  {
    "location": "文山區",
    "address": "興隆路四段  1巷",
    "lat": 24.99113,
    "lng": 121.558907
  },
  {
    "location": "文山區",
    "address": "木柵路四段  33巷",
    "lat": 24.99411,
    "lng": 121.571586
  },
  {
    "location": "文山區",
    "address": "景文街    車前路 ",
    "lat": 24.991243,
    "lng": 121.541298
  },
  {
    "location": "文山區",
    "address": "興隆路三段  255,304巷",
    "lat": 24.992693,
    "lng": 121.558802
  },
  {
    "location": "文山區",
    "address": "景中街    景後街 ",
    "lat": 24.992751,
    "lng": 121.543331
  },
  {
    "location": "文山區",
    "address": "羅斯福六段  景中街 ",
    "lat": 24.993152,
    "lng": 121.540918
  },
  {
    "location": "文山區",
    "address": "景文街    景中街",
    "lat": 24.992924,
    "lng": 121.541312
  },
  {
    "location": "文山區",
    "address": "景興路46巷  三福街4巷",
    "lat": 24.996001,
    "lng": 121.542835
  },
  {
    "location": "文山區",
    "address": "興隆路三段  229巷",
    "lat": 24.993527,
    "lng": 121.559116
  },
  {
    "location": "士林區",
    "address": "華齡街    後港街134巷",
    "lat": 25.08681,
    "lng": 121.51948
  },
  {
    "location": "文山區",
    "address": "景興路    243巷",
    "lat": 24.991049,
    "lng": 121.543467
  },
  {
    "location": "文山區",
    "address": "羅斯福六段  溪口街",
    "lat": 24.994177,
    "lng": 121.54113
  },
  {
    "location": "文山區",
    "address": "羅斯福六段  景華街",
    "lat": 24.994907,
    "lng": 121.54119
  },
  {
    "location": "文山區",
    "address": "景興路    153巷",
    "lat": 24.993764,
    "lng": 121.544609
  },
  {
    "location": "文山區",
    "address": "興隆路三段  海岸巡防署",
    "lat": 24.99508,
    "lng": 121.559661
  },
  {
    "location": "文山區",
    "address": "景福街    溪口國小",
    "lat": 24.993796,
    "lng": 121.539114
  },
  {
    "location": "文山區",
    "address": "景興路    景興國中",
    "lat": 24.996978,
    "lng": 121.544698
  },
  {
    "location": "文山區",
    "address": "景華街    128巷",
    "lat": 24.995777,
    "lng": 121.546956
  },
  {
    "location": "文山區",
    "address": "羅斯福六段  三福街",
    "lat": 24.995935,
    "lng": 121.541152
  },
  {
    "location": "文山區",
    "address": "景華街    景美街",
    "lat": 24.994938,
    "lng": 121.541608
  },
  {
    "location": "文山區",
    "address": "景華街    景興路",
    "lat": 24.995122,
    "lng": 121.544679
  },
  {
    "location": "文山區",
    "address": "指南路三段38巷 指南國小",
    "lat": 24.976361,
    "lng": 121.583459
  },
  {
    "location": "文山區",
    "address": "木柵路四段  萬芳路 ",
    "lat": 24.994933,
    "lng": 121.571752
  },
  {
    "location": "文山區",
    "address": "羅斯福六段  159巷1弄",
    "lat": 24.997246,
    "lng": 121.541206
  },
  {
    "location": "文山區",
    "address": "溪洲街    二號疏散門",
    "lat": 24.998499,
    "lng": 121.535462
  },
  {
    "location": "文山區",
    "address": "溪洲街    二號疏散門東側",
    "lat": 24.998663,
    "lng": 121.535573
  },
  {
    "location": "文山區",
    "address": "景福街    水快下匝道",
    "lat": 24.996126,
    "lng": 121.535727
  },
  {
    "location": "文山區",
    "address": "景興街    46巷",
    "lat": 24.996093,
    "lng": 121.544696
  },
  {
    "location": "文山區",
    "address": "木柵路四段  木柵高工",
    "lat": 24.995932,
    "lng": 121.572052
  },
  {
    "location": "文山區",
    "address": "新光路二段  高速公路下",
    "lat": 24.996433,
    "lng": 121.592992
  },
  {
    "location": "文山區",
    "address": "景中街    景興路",
    "lat": 24.992535,
    "lng": 121.544152
  },
  {
    "location": "文山區",
    "address": "興隆路三段  萬芳路",
    "lat": 24.996707,
    "lng": 121.559935
  },
  {
    "location": "文山區",
    "address": "萬芳路    萬芳路26巷",
    "lat": 24.99677,
    "lng": 121.570805
  },
  {
    "location": "文山區",
    "address": "木柵路四段  149巷",
    "lat": 24.998638,
    "lng": 121.574972
  },
  {
    "location": "文山區",
    "address": "羅斯福六段  景仁街  ",
    "lat": 24.997079,
    "lng": 121.540903
  },
  {
    "location": "文山區",
    "address": "景華街    150巷",
    "lat": 24.996388,
    "lng": 121.547526
  },
  {
    "location": "文山區",
    "address": "新光路二段  纜車站",
    "lat": 24.996496,
    "lng": 121.576321
  },
  {
    "location": "文山區",
    "address": "萬芳路    萬芳路105巷",
    "lat": 24.997292,
    "lng": 121.562171
  },
  {
    "location": "文山區",
    "address": "景華街    176巷",
    "lat": 24.997259,
    "lng": 121.547871
  },
  {
    "location": "文山區",
    "address": "興隆路三段36巷 16弄",
    "lat": 24.999521,
    "lng": 121.555003
  },
  {
    "location": "文山區",
    "address": "羅斯福五段  景隆街(景福街)",
    "lat": 24.999648,
    "lng": 121.53989
  },
  {
    "location": "大安區",
    "address": "辛亥路三段  第二殯儀館",
    "lat": 25.014532,
    "lng": 121.552397
  },
  {
    "location": "文山區",
    "address": "興隆路三段  警察專校",
    "lat": 24.997927,
    "lng": 121.559007
  },
  {
    "location": "文山區",
    "address": "新光路二段  服務中心",
    "lat": 24.997421,
    "lng": 121.577963
  },
  {
    "location": "文山區",
    "address": "興隆路一段  景興路 ",
    "lat": 24.998542,
    "lng": 121.544515
  },
  {
    "location": "文山區",
    "address": "興隆路二段  靜心小學",
    "lat": 24.999041,
    "lng": 121.546583
  },
  {
    "location": "文山區",
    "address": "仙岩路    景華街",
    "lat": 24.998366,
    "lng": 121.547706
  },
  {
    "location": "文山區",
    "address": "木柵路四段  和平東四段",
    "lat": 24.998193,
    "lng": 121.574593
  },
  {
    "location": "文山區",
    "address": "木柵路五段  指南停車場",
    "lat": 24.998991,
    "lng": 121.591626
  },
  {
    "location": "文山區",
    "address": "羅斯福六段142巷  20弄",
    "lat": 24.996694,
    "lng": 121.539723
  },
  {
    "location": "文山區",
    "address": "木柵路四段  9巷(新光河山)",
    "lat": 24.992432,
    "lng": 121.571261
  },
  {
    "location": "文山區",
    "address": "萬和街    萬安街16巷",
    "lat": 25.000417,
    "lng": 121.568737
  },
  {
    "location": "文山區",
    "address": "景福街    水快上匝道",
    "lat": 24.998168,
    "lng": 121.536846
  },
  {
    "location": "文山區",
    "address": "景福街    54巷",
    "lat": 24.99906,
    "lng": 121.538119
  },
  {
    "location": "文山區",
    "address": "辛亥路五段  73巷",
    "lat": 24.998181,
    "lng": 121.553072
  },
  {
    "location": "文山區",
    "address": "萬芳路    萬利街",
    "lat": 24.999056,
    "lng": 121.566975
  },
  {
    "location": "文山區",
    "address": "萬芳路    萬和街 ",
    "lat": 24.99876,
    "lng": 121.569057
  },
  {
    "location": "文山區",
    "address": "新光路二段  動物園 ",
    "lat": 24.998669,
    "lng": 121.580086
  },
  {
    "location": "文山區",
    "address": "木柵路五段  二高橋下",
    "lat": 24.998707,
    "lng": 121.594314
  },
  {
    "location": "士林區",
    "address": "士東路    89,91巷",
    "lat": 25.112125,
    "lng": 121.528976
  },
  {
    "location": "北投區",
    "address": "承德路七段  石牌路一段",
    "lat": 25.112449,
    "lng": 121.509262
  },
  {
    "location": "北投區",
    "address": "懷德街    東陽街",
    "lat": 25.112301,
    "lng": 121.519473
  },
  {
    "location": "士林區",
    "address": "至善路三段  中社路一段",
    "lat": 25.112147,
    "lng": 121.558645
  },
  {
    "location": "士林區",
    "address": "忠誠路二段     士東路",
    "lat": 25.112386,
    "lng": 121.531047
  },
  {
    "location": "士林區",
    "address": "仰德大道三段 5巷",
    "lat": 25.114166,
    "lng": 121.550436
  },
  {
    "location": "北投區",
    "address": "東華街一段     裕民六路",
    "lat": 25.113132,
    "lng": 121.516773
  },
  {
    "location": "士林區",
    "address": "士東路       200巷(士林法院)",
    "lat": 25.112739,
    "lng": 121.533541
  },
  {
    "location": "士林區",
    "address": "中山北六段     405巷",
    "lat": 25.115203,
    "lng": 121.527801
  },
  {
    "location": "北投區",
    "address": "明德路    明德國小",
    "lat": 25.1121,
    "lng": 121.521615
  },
  {
    "location": "士林區",
    "address": "至善路三段  71巷",
    "lat": 25.11338,
    "lng": 121.566413
  },
  {
    "location": "士林區",
    "address": "士東路    286巷",
    "lat": 25.113479,
    "lng": 121.537302
  },
  {
    "location": "北投區",
    "address": "東華街一段  東陽街",
    "lat": 25.112289,
    "lng": 121.517472
  },
  {
    "location": "北投區",
    "address": "石牌路一段  致遠二路",
    "lat": 25.114026,
    "lng": 121.51221
  },
  {
    "location": "北投區",
    "address": "石牌路一段  33,39巷",
    "lat": 25.113,
    "lng": 121.5102
  },
  {
    "location": "士林區",
    "address": "士東路    東山路 ",
    "lat": 25.113958,
    "lng": 121.539101
  },
  {
    "location": "北投區",
    "address": "東華街一段  裕民二路",
    "lat": 25.11419,
    "lng": 121.516039
  },
  {
    "location": "北投區",
    "address": "懷德街    榮華三路",
    "lat": 25.114204,
    "lng": 121.51983
  },
  {
    "location": "北投區",
    "address": "裕民六路   114巷",
    "lat": 25.114461,
    "lng": 121.517471
  },
  {
    "location": "士林區",
    "address": "中山北六段  450巷",
    "lat": 25.114385,
    "lng": 121.527387
  },
  {
    "location": "北投區",
    "address": "明德路    289巷",
    "lat": 25.115177,
    "lng": 121.521744
  },
  {
    "location": "北投區",
    "address": "承德路七段  實踐街",
    "lat": 25.114365,
    "lng": 121.50715
  },
  {
    "location": "北投區",
    "address": "石牌路一段     139號(石牌國中)",
    "lat": 25.114845,
    "lng": 121.514253
  },
  {
    "location": "士林區",
    "address": "忠誠路二段     154巷",
    "lat": 25.114925,
    "lng": 121.532928
  },
  {
    "location": "北投區",
    "address": "致遠二路      實踐街",
    "lat": 25.11528,
    "lng": 121.511638
  },
  {
    "location": "北投區",
    "address": "石牌路二段     東華街二段 ",
    "lat": 25.115321,
    "lng": 121.515239
  },
  {
    "location": "士林區",
    "address": "中山北六段     776巷 ",
    "lat": 25.116423,
    "lng": 121.528567
  },
  {
    "location": "北投區",
    "address": "明德路       振華街(懷德街)",
    "lat": 25.115506,
    "lng": 121.520082
  },
  {
    "location": "北投區",
    "address": "致遠二路         71巷",
    "lat": 25.115575,
    "lng": 121.511611
  },
  {
    "location": "士林區",
    "address": "仰德大道三段    61號(陽明山國小)",
    "lat": 25.119347,
    "lng": 121.552977
  },
  {
    "location": "士林區",
    "address": "中山北六段     728巷",
    "lat": 25.115251,
    "lng": 121.527846
  },
  {
    "location": "士林區",
    "address": "天母東路   8巷",
    "lat": 25.118033,
    "lng": 121.531691
  },
  {
    "location": "北投區",
    "address": "裕民六路   裕民二路33巷",
    "lat": 25.115273,
    "lng": 121.517661
  },
  {
    "location": "士林區",
    "address": "中山北六段405巷 79,80號",
    "lat": 25.116996,
    "lng": 121.526151
  },
  {
    "location": "士林區",
    "address": "忠誠路二段  207巷",
    "lat": 25.116538,
    "lng": 121.534121
  },
  {
    "location": "士林區",
    "address": "東山路    忠誠路二段207巷",
    "lat": 25.116446,
    "lng": 121.539035
  },
  {
    "location": "士林區",
    "address": "至善路三段  150巷",
    "lat": 25.116376,
    "lng": 121.574014
  },
  {
    "location": "北投區",
    "address": "明德路    208巷",
    "lat": 25.113102,
    "lng": 121.522004
  },
  {
    "location": "北投區",
    "address": "石牌路二段  裕民一路",
    "lat": 25.116748,
    "lng": 121.516215
  },
  {
    "location": "北投區",
    "address": "承德路七段  立賢路",
    "lat": 25.116248,
    "lng": 121.505114
  },
  {
    "location": "北投區",
    "address": "天母西路   117巷",
    "lat": 25.118873,
    "lng": 121.523185
  },
  {
    "location": "北投區",
    "address": "明德路    365號(台北護理健康大學)",
    "lat": 25.117349,
    "lng": 121.521435
  },
  {
    "location": "士林區",
    "address": "忠誠路二段207巷 士東路299巷(天母國中後門)",
    "lat": 25.116441,
    "lng": 121.537577
  },
  {
    "location": "北投區",
    "address": "西安街二段  致遠二路",
    "lat": 25.117485,
    "lng": 121.513161
  },
  {
    "location": "北投區",
    "address": "石牌路二段     99巷",
    "lat": 25.11755,
    "lng": 121.516601
  },
  {
    "location": "北投區",
    "address": "石牌路一段  西安街二段",
    "lat": 25.11509,
    "lng": 121.51483
  },
  {
    "location": "北投區",
    "address": "明德路    振興街(振興醫院)",
    "lat": 25.117627,
    "lng": 121.522274
  },
  {
    "location": "士林區",
    "address": "至善路三段  231號(楓林橋)",
    "lat": 25.11932,
    "lng": 121.582771
  },
  {
    "location": "北投區",
    "address": "西安街二段  立農街一段187巷",
    "lat": 25.120904,
    "lng": 121.504745
  },
  {
    "location": "北投區",
    "address": "東華街二段  致遠二路",
    "lat": 25.11777,
    "lng": 121.513533
  },
  {
    "location": "士林區",
    "address": "天母東路      43巷",
    "lat": 25.118052,
    "lng": 121.532368
  },
  {
    "location": "北投區",
    "address": "關渡路    知行路",
    "lat": 25.118414,
    "lng": 121.469006
  },
  {
    "location": "士林區",
    "address": "天母東路   忠誠路二段",
    "lat": 25.118101,
    "lng": 121.534646
  },
  {
    "location": "士林區",
    "address": "天母東路   107巷",
    "lat": 25.118149,
    "lng": 121.536426
  },
  {
    "location": "北投區",
    "address": "吉利街    尊賢街",
    "lat": 25.118563,
    "lng": 121.506499
  },
  {
    "location": "北投區",
    "address": "明德路    150巷",
    "lat": 25.110676,
    "lng": 121.52081
  },
  {
    "location": "士林區",
    "address": "天母西路   41巷",
    "lat": 25.118452,
    "lng": 121.527339
  },
  {
    "location": "士林區",
    "address": "天母西路   13巷",
    "lat": 25.118433,
    "lng": 121.52844
  },
  {
    "location": "北投區",
    "address": "西安街二段  259號",
    "lat": 25.120373,
    "lng": 121.507516
  },
  {
    "location": "北投區",
    "address": "石牌路二段  榮總正門",
    "lat": 25.118658,
    "lng": 121.519964
  },
  {
    "location": "士林區",
    "address": "天母西路   95巷(磺溪)",
    "lat": 25.118562,
    "lng": 121.524331
  },
  {
    "location": "士林區",
    "address": "天母西路   天母北路",
    "lat": 25.118466,
    "lng": 121.526137
  },
  {
    "location": "士林區",
    "address": "中山北七段14巷 天母東路69巷",
    "lat": 25.119911,
    "lng": 121.533366
  },
  {
    "location": "北投區",
    "address": "東華街二段  立農街二段",
    "lat": 25.119024,
    "lng": 121.512606
  },
  {
    "location": "北投區",
    "address": "西安街二段  立農街一段279巷",
    "lat": 25.120605,
    "lng": 121.506295
  },
  {
    "location": "北投區",
    "address": "立農街二段  202巷",
    "lat": 25.118846,
    "lng": 121.514268
  },
  {
    "location": "北投區",
    "address": "石牌路二段  130巷",
    "lat": 25.118068,
    "lng": 121.517526
  },
  {
    "location": "北投區",
    "address": "明德路    榮華二路",
    "lat": 25.113671,
    "lng": 121.52215
  },
  {
    "location": "北投區",
    "address": "東華街二段     340巷",
    "lat": 25.121165,
    "lng": 121.505589
  },
  {
    "location": "北投區",
    "address": "立農街二段  陽明大學",
    "lat": 25.118976,
    "lng": 121.513237
  },
  {
    "location": "北投區",
    "address": "石牌路二段  322號(身障重建中心)",
    "lat": 25.120815,
    "lng": 121.522818
  },
  {
    "location": "北投區",
    "address": "石牌路二段  振興街",
    "lat": 25.11899,
    "lng": 121.521359
  },
  {
    "location": "士林區",
    "address": "中山北七段  14巷",
    "lat": 25.118865,
    "lng": 121.530541
  },
  {
    "location": "士林區",
    "address": "東山路25巷81弄 光華路61巷4弄",
    "lat": 25.121206,
    "lng": 121.541586
  },
  {
    "location": "北投區",
    "address": "天母西路   130巷",
    "lat": 25.119102,
    "lng": 121.522369
  },
  {
    "location": "北投區",
    "address": "石牌路二段  天母西路",
    "lat": 25.119251,
    "lng": 121.521985
  },
  {
    "location": "士林區",
    "address": "天玉街    16巷",
    "lat": 25.120905,
    "lng": 121.528053
  },
  {
    "location": "士林區",
    "address": "仰德大道三段 新安路",
    "lat": 25.118953,
    "lng": 121.552854
  },
  {
    "location": "北投區",
    "address": "關渡路    知行路210巷(自然公園)",
    "lat": 25.119364,
    "lng": 121.469139
  },
  {
    "location": "北投區",
    "address": "承德路七段  公館路",
    "lat": 25.119514,
    "lng": 121.501482
  },
  {
    "location": "北投區",
    "address": "大度路    31號",
    "lat": 25.121183,
    "lng": 121.496497
  },
  {
    "location": "北投區",
    "address": "西安街二段  立農街一段",
    "lat": 25.119406,
    "lng": 121.511437
  },
  {
    "location": "士林區",
    "address": "中山北六段  天母東路",
    "lat": 25.118334,
    "lng": 121.5301
  },
  {
    "location": "士林區",
    "address": "仰德大道三段 125巷",
    "lat": 25.122734,
    "lng": 121.551653
  },
  {
    "location": "士林區",
    "address": "中山北七段81巷  天玉街39巷",
    "lat": 25.12221,
    "lng": 121.529367
  },
  {
    "location": "士林區",
    "address": "至善路三段  199號(溪山國小)",
    "lat": 25.119651,
    "lng": 121.580108
  },
  {
    "location": "北投區",
    "address": "西安街二段  立農街一段413巷",
    "lat": 25.119922,
    "lng": 121.509908
  },
  {
    "location": "北投區",
    "address": "知行路    225巷(關渡國中)",
    "lat": 25.120007,
    "lng": 121.467034
  },
  {
    "location": "士林區",
    "address": "天母北路   天玉街",
    "lat": 25.119948,
    "lng": 121.526436
  },
  {
    "location": "士林區",
    "address": "中山北七段  38,51巷",
    "lat": 25.120249,
    "lng": 121.531051
  },
  {
    "location": "北投區",
    "address": "公館路    423巷8弄",
    "lat": 25.120157,
    "lng": 121.502002
  },
  {
    "location": "北投區",
    "address": "西安街二段  立農街一段385巷",
    "lat": 25.120134,
    "lng": 121.50878
  },
  {
    "location": "士林區",
    "address": "至善路三段  336巷",
    "lat": 25.124711,
    "lng": 121.587661
  },
  {
    "location": "北投區",
    "address": "西安街二段  立農街一段349巷",
    "lat": 25.120305,
    "lng": 121.507876
  },
  {
    "location": "北投區",
    "address": "承德路六段  331巷",
    "lat": 25.105644,
    "lng": 121.51184
  },
  {
    "location": "北投區",
    "address": "東華街二段  致遠三路55巷",
    "lat": 25.120533,
    "lng": 121.508939
  },
  {
    "location": "北投區",
    "address": "石牌路二段  322號(致德樓)",
    "lat": 25.119957,
    "lng": 121.522701
  },
  {
    "location": "北投區",
    "address": "關渡路    知行路260巷",
    "lat": 25.120805,
    "lng": 121.469304
  },
  {
    "location": "北投區",
    "address": "東華街二段     266號",
    "lat": 25.120683,
    "lng": 121.508121
  },
  {
    "location": "北投區",
    "address": "大度路    關渡路",
    "lat": 25.12300221,
    "lng": 121.4690162
  },
  {
    "location": "北投區",
    "address": "民權路    自強路(新北市路口)",
    "lat": 25.124632,
    "lng": 121.462991
  },
  {
    "location": "士林區",
    "address": "天玉街38巷  16弄",
    "lat": 25.120054,
    "lng": 121.529318
  },
  {
    "location": "北投區",
    "address": "東華街二段  300巷",
    "lat": 25.120939,
    "lng": 121.506807
  },
  {
    "location": "北投區",
    "address": "承德路七段  大業路",
    "lat": 25.12105,
    "lng": 121.499727
  },
  {
    "location": "北投區",
    "address": "東華街二段  致遠三路",
    "lat": 25.119765,
    "lng": 121.511694
  },
  {
    "location": "北投區",
    "address": "大度路一段  中央北路二段257巷",
    "lat": 25.121942,
    "lng": 121.486081
  },
  {
    "location": "北投區",
    "address": "大度路一段  167號",
    "lat": 25.121528,
    "lng": 121.491862
  },
  {
    "location": "北投區",
    "address": "大度路一段  155號",
    "lat": 25.121434,
    "lng": 121.493237
  },
  {
    "location": "北投區",
    "address": "西安街二段  公館路",
    "lat": 25.121447,
    "lng": 121.502705
  },
  {
    "location": "北投區",
    "address": "東華街二段  366號",
    "lat": 25.121289,
    "lng": 121.504892
  },
  {
    "location": "士林區",
    "address": "天玉街    38,39巷",
    "lat": 25.121278,
    "lng": 121.529269
  },
  {
    "location": "士林區",
    "address": "中山北七段  81,82巷",
    "lat": 25.121526,
    "lng": 121.531553
  },
  {
    "location": "北投區",
    "address": "大度路    立德路",
    "lat": 25.122875,
    "lng": 121.471445
  },
  {
    "location": "士林區",
    "address": "天母北路   65巷",
    "lat": 25.121583,
    "lng": 121.52677
  },
  {
    "location": "北投區",
    "address": "大度路    知行路",
    "lat": 25.123038,
    "lng": 121.466878
  },
  {
    "location": "北投區",
    "address": "東華街二段  公館路",
    "lat": 25.121933,
    "lng": 121.502787
  },
  {
    "location": "北投區",
    "address": "石牌路二段  324巷",
    "lat": 25.121959,
    "lng": 121.523804
  },
  {
    "location": "北投區",
    "address": "關渡路    知行路316巷",
    "lat": 25.122337,
    "lng": 121.469491
  },
  {
    "location": "士林區",
    "address": "至善路三段  聖人瀑布入口",
    "lat": 25.1261364,
    "lng": 121.5877125
  },
  {
    "location": "士林區",
    "address": "中山北七段  114巷",
    "lat": 25.122161,
    "lng": 121.531792
  },
  {
    "location": "士林區",
    "address": "至善路三段  聖人瀑布出口",
    "lat": 25.127399,
    "lng": 121.587481
  },
  {
    "location": "北投區",
    "address": "中央北四段  大度路",
    "lat": 25.123829,
    "lng": 121.464356
  },
  {
    "location": "北投區",
    "address": "大度路三段  151號",
    "lat": 25.122658,
    "lng": 121.473101
  },
  {
    "location": "北投區",
    "address": "崇仁路一段  公館路",
    "lat": 25.122684,
    "lng": 121.50291
  },
  {
    "location": "北投區",
    "address": "大度路    立功街(北側)",
    "lat": 25.12327026,
    "lng": 121.4689439
  },
  {
    "location": "北投區",
    "address": "公館路    大興街",
    "lat": 25.131101,
    "lng": 121.504633
  },
  {
    "location": "士林區",
    "address": "中山北七段  219巷3弄",
    "lat": 25.126841,
    "lng": 121.532284
  },
  {
    "location": "北投區",
    "address": "立功街    55巷",
    "lat": 25.124676,
    "lng": 121.469053
  },
  {
    "location": "士林區",
    "address": "中山北七段  140,141巷",
    "lat": 25.123055,
    "lng": 121.532132
  },
  {
    "location": "士林區",
    "address": "天玉街    中山北七段141巷",
    "lat": 25.123072,
    "lng": 121.531327
  },
  {
    "location": "北投區",
    "address": "中央北四段  595號",
    "lat": 25.124375,
    "lng": 121.464892
  },
  {
    "location": "北投區",
    "address": "公館路    334巷(單閃)",
    "lat": 25.123795,
    "lng": 121.505317
  },
  {
    "location": "士林區",
    "address": "仰德大道二段 134巷(林語堂圖書館)",
    "lat": 25.1095,
    "lng": 121.547223
  },
  {
    "location": "士林區",
    "address": "中山北七段  152,165號",
    "lat": 25.123923,
    "lng": 121.532456
  },
  {
    "location": "士林區",
    "address": "仰德大道三段 250巷",
    "lat": 25.125627,
    "lng": 121.549791
  },
  {
    "location": "北投區",
    "address": "磺港路    崇仁路一段155巷",
    "lat": 25.123853,
    "lng": 121.502862
  },
  {
    "location": "北投區",
    "address": "行義路    同德街",
    "lat": 25.12531,
    "lng": 121.527008
  },
  {
    "location": "北投區",
    "address": "立德路    120巷",
    "lat": 25.126678,
    "lng": 121.471805
  },
  {
    "location": "北投區",
    "address": "行義路    10巷",
    "lat": 25.124681,
    "lng": 121.526231
  },
  {
    "location": "北投區",
    "address": "三合街一段  118巷",
    "lat": 25.126778,
    "lng": 121.504159
  },
  {
    "location": "北投區",
    "address": "三合街一段  82巷",
    "lat": 25.126904,
    "lng": 121.505031
  },
  {
    "location": "北投區",
    "address": "立德路    立功街",
    "lat": 25.12535,
    "lng": 121.471667
  },
  {
    "location": "北投區",
    "address": "公館路    228巷",
    "lat": 25.126463,
    "lng": 121.507975
  },
  {
    "location": "北投區",
    "address": "三合街一段  36巷",
    "lat": 25.127225,
    "lng": 121.506373
  },
  {
    "location": "北投區",
    "address": "大業路    三合街二段",
    "lat": 25.12573,
    "lng": 121.49851
  },
  {
    "location": "北投區",
    "address": "北投路一段  三合街二段",
    "lat": 25.126201,
    "lng": 121.500748
  },
  {
    "location": "北投區",
    "address": "中央南二段  三合街二段",
    "lat": 25.12613,
    "lng": 121.500443
  },
  {
    "location": "北投區",
    "address": "三合街一段118巷 82巷",
    "lat": 25.12776,
    "lng": 121.50484
  },
  {
    "location": "北投區",
    "address": "崇仁路一段  三合路二段",
    "lat": 25.126353,
    "lng": 121.501489
  },
  {
    "location": "北投區",
    "address": "大業路    280巷",
    "lat": 25.127211,
    "lng": 121.498031
  },
  {
    "location": "北投區",
    "address": "磺港路    三合街二段",
    "lat": 25.126709,
    "lng": 121.503567
  },
  {
    "location": "北投區",
    "address": "中央北四段  541巷",
    "lat": 25.12782,
    "lng": 121.467663
  },
  {
    "location": "北投區",
    "address": "北投路一段  大業路280巷",
    "lat": 25.127712,
    "lng": 121.500437
  },
  {
    "location": "北投區",
    "address": "北投路一段  85號",
    "lat": 25.128854,
    "lng": 121.500219
  },
  {
    "location": "北投區",
    "address": "崇仁路一段  155巷",
    "lat": 25.123635,
    "lng": 121.502183
  },
  {
    "location": "北投區",
    "address": "立功街    中央北四段515巷",
    "lat": 25.125986,
    "lng": 121.470118
  },
  {
    "location": "北投區",
    "address": "中央南一段  大興街",
    "lat": 25.130658,
    "lng": 121.501151
  },
  {
    "location": "北投區",
    "address": "中央北四段  一德街",
    "lat": 25.128413,
    "lng": 121.468909
  },
  {
    "location": "北投區",
    "address": "中央南一段  崇仁路一段",
    "lat": 25.128349,
    "lng": 121.501215
  },
  {
    "location": "北投區",
    "address": "中央北四段  456巷",
    "lat": 25.12876,
    "lng": 121.469802
  },
  {
    "location": "北投區",
    "address": "中央北四段  404巷",
    "lat": 25.129409,
    "lng": 121.470949
  },
  {
    "location": "北投區",
    "address": "學園路    臺北藝術大學",
    "lat": 25.129762,
    "lng": 121.465968
  },
  {
    "location": "北投區",
    "address": "大業路    大興街",
    "lat": 25.129589,
    "lng": 121.497064
  },
  {
    "location": "北投區",
    "address": "中央北二段  329,333號",
    "lat": 25.138445,
    "lng": 121.489194
  },
  {
    "location": "北投區",
    "address": "大興街    23,24巷",
    "lat": 25.129955,
    "lng": 121.498528
  },
  {
    "location": "北投區",
    "address": "北投路二段  大興街",
    "lat": 25.130223,
    "lng": 121.499642
  },
  {
    "location": "北投區",
    "address": "學園路    臺北城市科技大學",
    "lat": 25.132988,
    "lng": 121.467244
  },
  {
    "location": "北投區",
    "address": "大興街    清江路",
    "lat": 25.130797,
    "lng": 121.502032
  },
  {
    "location": "北投區",
    "address": "北投路二段  大業路516巷",
    "lat": 25.132627,
    "lng": 121.497563
  },
  {
    "location": "北投區",
    "address": "磺港路    大興街",
    "lat": 25.130901,
    "lng": 121.503684
  },
  {
    "location": "北投區",
    "address": "大業路    65巷",
    "lat": 25.123249,
    "lng": 121.499222
  },
  {
    "location": "北投區",
    "address": "行義路    泉源路",
    "lat": 25.143939,
    "lng": 121.526749
  },
  {
    "location": "北投區",
    "address": "行義路    130巷",
    "lat": 25.128872,
    "lng": 121.528269
  },
  {
    "location": "北投區",
    "address": "中央北二段  豐年路二段",
    "lat": 25.137823,
    "lng": 121.493092
  },
  {
    "location": "北投區",
    "address": "磺港路    北投區公所",
    "lat": 25.132606,
    "lng": 121.503092
  },
  {
    "location": "北投區",
    "address": "中央北四段     577巷",
    "lat": 25.127178,
    "lng": 121.466693
  },
  {
    "location": "北投區",
    "address": "北投路二段  捷運北投站門口",
    "lat": 25.132056,
    "lng": 121.498017
  },
  {
    "location": "北投區",
    "address": "光明路    育仁路",
    "lat": 25.132283,
    "lng": 121.498799
  },
  {
    "location": "北投區",
    "address": "中央北四段     515巷(立功街)",
    "lat": 25.125987,
    "lng": 121.470123
  },
  {
    "location": "北投區",
    "address": "行義路    154巷",
    "lat": 25.130591,
    "lng": 121.528058
  },
  {
    "location": "士林區",
    "address": "格致路    凱旋路",
    "lat": 25.136985,
    "lng": 121.546389
  },
  {
    "location": "北投區",
    "address": "中央南一段  光明路(公館路)",
    "lat": 25.133186,
    "lng": 121.501523
  },
  {
    "location": "北投區",
    "address": "大業路    452巷",
    "lat": 25.131495,
    "lng": 121.496179
  },
  {
    "location": "北投區",
    "address": "北投路二段  11號",
    "lat": 25.130937,
    "lng": 121.498996
  },
  {
    "location": "北投區",
    "address": "育仁路    37,54號",
    "lat": 25.133222,
    "lng": 121.498118
  },
  {
    "location": "北投區",
    "address": "光明路    181號(郵局)",
    "lat": 25.135724,
    "lng": 121.503234
  },
  {
    "location": "士林區",
    "address": "仰德大道四段 75號(格致中學)",
    "lat": 25.131099,
    "lng": 121.546902
  },
  {
    "location": "北投區",
    "address": "北投路二段  13號",
    "lat": 25.131496,
    "lng": 121.49847
  },
  {
    "location": "北投區",
    "address": "大業路    豐年路二段(北投路二段)",
    "lat": 25.134754,
    "lng": 121.496439
  },
  {
    "location": "北投區",
    "address": "中央北四段  18,30巷",
    "lat": 25.135306,
    "lng": 121.478621
  },
  {
    "location": "北投區",
    "address": "中央北四段  桃源國中",
    "lat": 25.134587,
    "lng": 121.477445
  },
  {
    "location": "北投區",
    "address": "中央北一段  育仁路",
    "lat": 25.134772,
    "lng": 121.499541
  },
  {
    "location": "北投區",
    "address": "中央北四段  一心路",
    "lat": 25.132542,
    "lng": 121.47486
  },
  {
    "location": "北投區",
    "address": "中央北一段  大同路",
    "lat": 25.135279,
    "lng": 121.498796
  },
  {
    "location": "北投區",
    "address": "中央北三段  252巷",
    "lat": 25.135826,
    "lng": 121.479874
  },
  {
    "location": "北投區",
    "address": "中央北三段  220巷",
    "lat": 25.136246,
    "lng": 121.480645
  },
  {
    "location": "北投區",
    "address": "中央北一段  大業路",
    "lat": 25.136047,
    "lng": 121.497172
  },
  {
    "location": "北投區",
    "address": "光明路    225號",
    "lat": 25.136424,
    "lng": 121.504305
  },
  {
    "location": "北投區",
    "address": "行義路    186巷",
    "lat": 25.132746,
    "lng": 121.528504
  },
  {
    "location": "北投區",
    "address": "光明路    溫泉路37巷",
    "lat": 25.134426,
    "lng": 121.502392
  },
  {
    "location": "北投區",
    "address": "中央北二段     文化三路",
    "lat": 25.136529,
    "lng": 121.496109
  },
  {
    "location": "北投區",
    "address": "中央北二段  350巷",
    "lat": 25.138389,
    "lng": 121.488283
  },
  {
    "location": "北投區",
    "address": "中央北二段  320巷",
    "lat": 25.138435,
    "lng": 121.489297
  },
  {
    "location": "北投區",
    "address": "中央北三段  168巷",
    "lat": 25.136969,
    "lng": 121.482083
  },
  {
    "location": "北投區",
    "address": "中央北二段     95巷",
    "lat": 25.136895,
    "lng": 121.495319
  },
  {
    "location": "北投區",
    "address": "大業路    大同街",
    "lat": 25.136998,
    "lng": 121.499101
  },
  {
    "location": "北投區",
    "address": "大業路    雙全街",
    "lat": 25.137077,
    "lng": 121.501055
  },
  {
    "location": "北投區",
    "address": "光明路    中山路",
    "lat": 25.136874,
    "lng": 121.504246
  },
  {
    "location": "士林區",
    "address": "仰德大道四段 建業路",
    "lat": 25.135646,
    "lng": 121.546094
  },
  {
    "location": "北投區",
    "address": "中央北三段     148巷",
    "lat": 25.137145,
    "lng": 121.482838
  },
  {
    "location": "北投區",
    "address": "大業路       泉源路",
    "lat": 25.137219,
    "lng": 121.503765
  },
  {
    "location": "北投區",
    "address": "中央北四段     學園路",
    "lat": 25.126604,
    "lng": 121.465964
  },
  {
    "location": "萬華區",
    "address": "中華路二段     泉州街",
    "lat": 25.024044,
    "lng": 121.512238
  },
  {
    "location": "北投區",
    "address": "中央北四段     自立路",
    "lat": 25.126002,
    "lng": 121.46553
  },
  {
    "location": "北投區",
    "address": "中央北四段     316巷",
    "lat": 25.130844,
    "lng": 121.47272
  },
  {
    "location": "北投區",
    "address": "中央北三段  40巷",
    "lat": 25.138208,
    "lng": 121.485636
  },
  {
    "location": "北投區",
    "address": "中央北二段  新興路",
    "lat": 25.138306,
    "lng": 121.486772
  },
  {
    "location": "北投區",
    "address": "中央北一段  北投國小",
    "lat": 25.13426,
    "lng": 121.500331
  },
  {
    "location": "士林區",
    "address": "格致路    菁山路",
    "lat": 25.137928,
    "lng": 121.546545
  },
  {
    "location": "北投區",
    "address": "中央北三段  53巷",
    "lat": 25.138145,
    "lng": 121.485177
  },
  {
    "location": "北投區",
    "address": "中央北二段  稻香路",
    "lat": 25.138514,
    "lng": 121.491287
  },
  {
    "location": "北投區",
    "address": "永興路    大同街",
    "lat": 25.138598,
    "lng": 121.499223
  },
  {
    "location": "北投區",
    "address": "泉源路    新民路(逸仙國小)",
    "lat": 25.138479,
    "lng": 121.505004
  },
  {
    "location": "北投區",
    "address": "中和街       珠海路",
    "lat": 25.138266,
    "lng": 121.502522
  },
  {
    "location": "北投區",
    "address": "中和街       雙全街",
    "lat": 25.139255,
    "lng": 121.501498
  },
  {
    "location": "士林區",
    "address": "格致路    愛富二街",
    "lat": 25.138987,
    "lng": 121.546436
  },
  {
    "location": "北投區",
    "address": "中和街    永興路",
    "lat": 25.139744,
    "lng": 121.501004
  },
  {
    "location": "北投區",
    "address": "新民路    60號(國軍醫院)",
    "lat": 25.139914,
    "lng": 121.509751
  },
  {
    "location": "北投區",
    "address": "稻香路    新興路",
    "lat": 25.141057,
    "lng": 121.489651
  },
  {
    "location": "士林區",
    "address": "格致路    205巷",
    "lat": 25.142399,
    "lng": 121.549455
  },
  {
    "location": "北投區",
    "address": "中和街    復興四路",
    "lat": 25.141271,
    "lng": 121.499444
  },
  {
    "location": "北投區",
    "address": "珠海路    登山路",
    "lat": 25.141847,
    "lng": 121.510125
  },
  {
    "location": "士林區",
    "address": "新園街    菁山路101巷(菁山小鎮)",
    "lat": 25.151256,
    "lng": 121.561839
  },
  {
    "location": "北投區",
    "address": "稻香路            秀山路",
    "lat": 25.141986,
    "lng": 121.490276
  },
  {
    "location": "北投區",
    "address": "稻香路    樹林路",
    "lat": 25.142411,
    "lng": 121.490052
  },
  {
    "location": "北投區",
    "address": "稻香路    石仙路",
    "lat": 25.142614,
    "lng": 121.489235
  },
  {
    "location": "北投區",
    "address": "秀山路    31號",
    "lat": 25.143034,
    "lng": 121.490841
  },
  {
    "location": "北投區",
    "address": "泉源路    惇敘高中",
    "lat": 25.144433,
    "lng": 121.527141
  },
  {
    "location": "北投區",
    "address": "中和街    秀山路",
    "lat": 25.145392,
    "lng": 121.492956
  },
  {
    "location": "北投區",
    "address": "東昇路    泉源路",
    "lat": 25.145873,
    "lng": 121.5230125
  },
  {
    "location": "內湖區",
    "address": "環山路一段  內湖路一段285巷",
    "lat": 25.08639065,
    "lng": 121.5669178
  },
  {
    "location": "北投區",
    "address": "陽金公路   勝利街(湖山路)",
    "lat": 25.152353,
    "lng": 121.54711
  },
  {
    "location": "北投區",
    "address": "陽明路一段  24巷(單閃)",
    "lat": 25.148884,
    "lng": 121.549372
  },
  {
    "location": "北投區",
    "address": "陽明路一段  38巷(建國街)",
    "lat": 25.149781,
    "lng": 121.549622
  },
  {
    "location": "北投區",
    "address": "陽金公路   陽明路一段(中山樓)",
    "lat": 25.151226,
    "lng": 121.550067
  },
  {
    "location": "北投區",
    "address": "陽金公路   第二停車場(遊客中心)",
    "lat": 25.155257,
    "lng": 121.546075
  },
  {
    "location": "北投區",
    "address": "陽金公路   竹子湖派出所",
    "lat": 25.1675,
    "lng": 121.540096
  },
  {
    "location": "文山區",
    "address": "興隆路二段  景華街",
    "lat": 24.999328,
    "lng": 121.547299
  },
  {
    "location": "文山區",
    "address": "仙岩路    興隆路二段96巷",
    "lat": 25.000131,
    "lng": 121.550321
  },
  {
    "location": "文山區",
    "address": "和平東四段  352,383巷",
    "lat": 24.999147,
    "lng": 121.574128
  },
  {
    "location": "文山區",
    "address": "興隆路三段36巷17弄 中國科技大學",
    "lat": 24.999289,
    "lng": 121.55547
  },
  {
    "location": "文山區",
    "address": "木柵路四段  21巷(名人山莊)",
    "lat": 24.993003,
    "lng": 121.571376
  },
  {
    "location": "內湖區",
    "address": "康寧路三段  南湖大橋",
    "lat": 25.066439,
    "lng": 121.611058
  },
  {
    "location": "文山區",
    "address": "福興路    4巷",
    "lat": 25.002711,
    "lng": 121.551404
  },
  {
    "location": "文山區",
    "address": "興隆路三段  萬芳醫院",
    "lat": 24.999316,
    "lng": 121.557494
  },
  {
    "location": "文山區",
    "address": "木柵路四段  萬芳交流道",
    "lat": 25.000197,
    "lng": 121.576884
  },
  {
    "location": "文山區",
    "address": "興隆路一段  251巷",
    "lat": 24.999457,
    "lng": 121.544
  },
  {
    "location": "文山區",
    "address": "辛亥路五段  25巷",
    "lat": 24.99988,
    "lng": 121.554094
  },
  {
    "location": "文山區",
    "address": "和平東四段  295巷",
    "lat": 25.000622,
    "lng": 121.573115
  },
  {
    "location": "文山區",
    "address": "木柵路五段  66號",
    "lat": 25.001063,
    "lng": 121.589201
  },
  {
    "location": "文山區",
    "address": "興隆路二段     96巷",
    "lat": 25.000781,
    "lng": 121.549814
  },
  {
    "location": "文山區",
    "address": "興隆路三段     57,58號",
    "lat": 25.000179,
    "lng": 121.556013
  },
  {
    "location": "文山區",
    "address": "木柵路四段     159巷",
    "lat": 24.999775,
    "lng": 121.575654
  },
  {
    "location": "文山區",
    "address": "羅斯福五段  萬隆街",
    "lat": 25.000555,
    "lng": 121.539532
  },
  {
    "location": "文山區",
    "address": "興隆路二段     153巷",
    "lat": 25.000314,
    "lng": 121.548558
  },
  {
    "location": "文山區",
    "address": "萬和街    萬芳國小",
    "lat": 25.001402,
    "lng": 121.567659
  },
  {
    "location": "文山區",
    "address": "興隆路二段154巷  220巷",
    "lat": 25.000504,
    "lng": 121.552234
  },
  {
    "location": "文山區",
    "address": "興隆路二段203巷 興隆路二段153巷6弄",
    "lat": 25.001899,
    "lng": 121.54871
  },
  {
    "location": "文山區",
    "address": "興隆路二段  福興路",
    "lat": 25.00182,
    "lng": 121.551773
  },
  {
    "location": "文山區",
    "address": "和平東四段  67號(名門翠堤)",
    "lat": 25.005601,
    "lng": 121.567013
  },
  {
    "location": "文山區",
    "address": "新光路三段  文和橋",
    "lat": 25.001287,
    "lng": 121.596357
  },
  {
    "location": "文山區",
    "address": "溪洲街    137巷",
    "lat": 25.000053,
    "lng": 121.535388
  },
  {
    "location": "文山區",
    "address": "興隆路二段  辛亥路四段",
    "lat": 25.000843,
    "lng": 121.554589
  },
  {
    "location": "文山區",
    "address": "興隆路二段  154巷",
    "lat": 25.001549,
    "lng": 121.550986
  },
  {
    "location": "文山區",
    "address": "興隆路二段  275巷",
    "lat": 25.001556,
    "lng": 121.552517
  },
  {
    "location": "文山區",
    "address": "萬美街一段  萬樂街",
    "lat": 25.001464,
    "lng": 121.565606
  },
  {
    "location": "文山區",
    "address": "仙岩路               興隆路二段154巷",
    "lat": 25.000975,
    "lng": 121.551463
  },
  {
    "location": "文山區",
    "address": "萬樂街    萬芳國小",
    "lat": 25.000029,
    "lng": 121.566916
  },
  {
    "location": "文山區",
    "address": "興隆路一段  興順街",
    "lat": 25.000588,
    "lng": 121.543204
  },
  {
    "location": "文山區",
    "address": "木柵路五段  文和橋",
    "lat": 25.001703,
    "lng": 121.594986
  },
  {
    "location": "文山區",
    "address": "溪洲街    135巷",
    "lat": 25.002018,
    "lng": 121.535552
  },
  {
    "location": "文山區",
    "address": "興隆路一段  景明路",
    "lat": 24.998576,
    "lng": 121.544468
  },
  {
    "location": "文山區",
    "address": "羅斯福五段  218巷 ",
    "lat": 25.00219,
    "lng": 121.538882
  },
  {
    "location": "文山區",
    "address": "萬美街二段  21巷公訓中心",
    "lat": 25.00203,
    "lng": 121.561769
  },
  {
    "location": "文山區",
    "address": "萬美街二段49號 和平東路四段66巷",
    "lat": 25.005426,
    "lng": 121.564384
  },
  {
    "location": "文山區",
    "address": "辛亥路四段  222巷",
    "lat": 25.002197,
    "lng": 121.555441
  },
  {
    "location": "文山區",
    "address": "萬美街一段  萬安街    ",
    "lat": 25.002347,
    "lng": 121.570457
  },
  {
    "location": "文山區",
    "address": "羅斯福五段  192巷",
    "lat": 25.003582,
    "lng": 121.53864
  },
  {
    "location": "文山區",
    "address": "興隆路一段  83巷",
    "lat": 25.003182,
    "lng": 121.541232
  },
  {
    "location": "文山區",
    "address": "萬美街一段  萬美街一段19巷",
    "lat": 25.002466,
    "lng": 121.568672
  },
  {
    "location": "文山區",
    "address": "和平東四段  萬美街一段",
    "lat": 25.002391,
    "lng": 121.571885
  },
  {
    "location": "文山區",
    "address": "木柵路五段  21巷(風動石)",
    "lat": 25.001992,
    "lng": 121.580976
  },
  {
    "location": "文山區",
    "address": "木柵路五段  新光路二段",
    "lat": 25.002913,
    "lng": 121.583941
  },
  {
    "location": "文山區",
    "address": "木柵路五段  53號",
    "lat": 25.003167,
    "lng": 121.586544
  },
  {
    "location": "文山區",
    "address": "萬寧街    163號(萬寧山莊)",
    "lat": 25.004194,
    "lng": 121.570444
  },
  {
    "location": "文山區",
    "address": "木柵路五段  57號",
    "lat": 25.002901,
    "lng": 121.58743
  },
  {
    "location": "文山區",
    "address": "萬美街二段  萬寧街",
    "lat": 25.003452,
    "lng": 121.562812
  },
  {
    "location": "文山區",
    "address": "興隆路三段  興隆路三段115巷",
    "lat": 24.998964,
    "lng": 121.557972
  },
  {
    "location": "文山區",
    "address": "辛亥路四段  萬美街二段",
    "lat": 25.006096,
    "lng": 121.558113
  },
  {
    "location": "文山區",
    "address": "興隆路一段  萬盛街106巷",
    "lat": 25.003862,
    "lng": 121.540734
  },
  {
    "location": "文山區",
    "address": "汀州路四段  溪洲街(停車場東北側)",
    "lat": 25.004448,
    "lng": 121.535629
  },
  {
    "location": "文山區",
    "address": "興隆路一段  羅斯福五段",
    "lat": 25.004359,
    "lng": 121.538769
  },
  {
    "location": "文山區",
    "address": "萬盛街    102號",
    "lat": 25.005406,
    "lng": 121.540921
  },
  {
    "location": "文山區",
    "address": "汀州路四段  溪洲街(停車場西南側)",
    "lat": 25.003765,
    "lng": 121.535451
  },
  {
    "location": "文山區",
    "address": "羅斯福五段170巷  萬福國小",
    "lat": 25.004701,
    "lng": 121.53671
  },
  {
    "location": "文山區",
    "address": "汀州路四段  羅斯福五段170巷",
    "lat": 25.004776,
    "lng": 121.535716
  },
  {
    "location": "文山區",
    "address": "汀州路四段  溪洲街(停車場西北側)",
    "lat": 25.004393,
    "lng": 121.535193
  },
  {
    "location": "文山區",
    "address": "和平東四段  萬寧街",
    "lat": 25.005028,
    "lng": 121.56771
  },
  {
    "location": "文山區",
    "address": "辛亥路四段  130巷",
    "lat": 25.004504,
    "lng": 121.556838
  },
  {
    "location": "文山區",
    "address": "辛亥路四段  166巷",
    "lat": 25.00361,
    "lng": 121.556328
  },
  {
    "location": "文山區",
    "address": "萬美街二段  靈糧山莊旁",
    "lat": 25.005645,
    "lng": 121.559981
  },
  {
    "location": "文山區",
    "address": "萬美街二段  興德路",
    "lat": 25.00574,
    "lng": 121.558762
  },
  {
    "location": "文山區",
    "address": "汀州路四段  溪洲街(北側)",
    "lat": 25.005957,
    "lng": 121.536128
  },
  {
    "location": "文山區",
    "address": "辛亥路四段  101巷",
    "lat": 25.006687,
    "lng": 121.558554
  },
  {
    "location": "文山區",
    "address": "辛亥路四段  77巷",
    "lat": 25.007391,
    "lng": 121.558646
  },
  {
    "location": "文山區",
    "address": "羅斯福四段  萬盛街",
    "lat": 25.008006,
    "lng": 121.538221
  },
  {
    "location": "文山區",
    "address": "汀州路四段  師大分部",
    "lat": 25.007798,
    "lng": 121.537348
  },
  {
    "location": "內湖區",
    "address": "舊宗路一段  新湖一路",
    "lat": 25.0602058,
    "lng": 121.5792375
  },
  {
    "location": "中正區",
    "address": "基隆路四段  汀州路四段",
    "lat": 25.0109423,
    "lng": 121.5363219
  },
  {
    "location": "大安區",
    "address": "基隆路四段  羅斯福四段",
    "lat": 25.011191,
    "lng": 121.537169
  },
  {
    "location": "大安區",
    "address": "臥龍街    和平東路三段464巷",
    "lat": 25.016764,
    "lng": 121.559886
  },
  {
    "location": "大安區",
    "address": "羅斯福四段113巷  民族國中",
    "lat": 25.011287,
    "lng": 121.538846
  },
  {
    "location": "大安區",
    "address": "羅斯福四段113巷  基隆路四段41巷",
    "lat": 25.011351,
    "lng": 121.540947
  },
  {
    "location": "中正區",
    "address": "水源路    思源街",
    "lat": 25.011811,
    "lng": 121.528307
  },
  {
    "location": "大安區",
    "address": "基隆路四段41巷68弄  6號(台科大宿舍門口)",
    "lat": 25.011518,
    "lng": 121.54134
  },
  {
    "location": "大安區",
    "address": "和平東三段  627,631巷",
    "lat": 25.013308,
    "lng": 121.563258
  },
  {
    "location": "大安區",
    "address": "基隆路四段41巷68弄  公館國小",
    "lat": 25.012491,
    "lng": 121.542792
  },
  {
    "location": "中正區",
    "address": "汀州路三段  羅斯福四段136巷",
    "lat": 25.0125787,
    "lng": 121.5352623
  },
  {
    "location": "大安區",
    "address": "芳蘭路    基隆路三段155巷",
    "lat": 25.012523,
    "lng": 121.545093
  },
  {
    "location": "大安區",
    "address": "基隆路四段  144巷",
    "lat": 25.013107,
    "lng": 121.539508
  },
  {
    "location": "中正區",
    "address": "思源街    永福橋頭",
    "lat": 25.0134574,
    "lng": 121.5302098
  },
  {
    "location": "大安區",
    "address": "臥龍街    富陽街157巷",
    "lat": 25.017776,
    "lng": 121.557879
  },
  {
    "location": "中正區",
    "address": "汀州路三段  羅斯福四段90巷",
    "lat": 25.0135093,
    "lng": 121.5344624
  },
  {
    "location": "大安區",
    "address": "基隆路四段  科技大學",
    "lat": 25.013859,
    "lng": 121.540424
  },
  {
    "location": "大安區",
    "address": "辛亥路三段  停車場",
    "lat": 25.014755,
    "lng": 121.552577
  },
  {
    "location": "中正區",
    "address": "汀州路三段  羅斯福四段52巷",
    "lat": 25.0143798,
    "lng": 121.5332641
  },
  {
    "location": "中正區",
    "address": "羅斯福四段  90巷",
    "lat": 25.014042,
    "lng": 121.5350875
  },
  {
    "location": "大安區",
    "address": "和平東三段  632,636巷",
    "lat": 25.012913,
    "lng": 121.563391
  },
  {
    "location": "中正區",
    "address": "汀州路三段  羅斯福四段24巷",
    "lat": 25.0148612,
    "lng": 121.5325399
  },
  {
    "location": "大安區",
    "address": "辛亥路三段  284巷",
    "lat": 25.015202,
    "lng": 121.551315
  },
  {
    "location": "中正區",
    "address": "水源路    永春街200巷",
    "lat": 25.0151978,
    "lng": 121.5261052
  },
  {
    "location": "中正區",
    "address": "汀州路三段  思源街",
    "lat": 25.0150711,
    "lng": 121.5322076
  },
  {
    "location": "大安區",
    "address": "芳蘭路    長興街(自來水廠)",
    "lat": 25.014972,
    "lng": 121.547438
  },
  {
    "location": "中正區",
    "address": "汀州路三段     羅斯福三段284巷",
    "lat": 25.015683,
    "lng": 121.5313534
  },
  {
    "location": "大安區",
    "address": "基隆路三段     156,155巷",
    "lat": 25.015723,
    "lng": 121.542571
  },
  {
    "location": "大安區",
    "address": "辛亥路三段  青峰里公園",
    "lat": 25.015438,
    "lng": 121.551489
  },
  {
    "location": "萬華區",
    "address": "環河南三段  華中橋上",
    "lat": 25.016479,
    "lng": 121.495517
  },
  {
    "location": "中正區",
    "address": "水源路    31巷",
    "lat": 25.0179355,
    "lng": 121.5242914
  },
  {
    "location": "中正區",
    "address": "羅斯福三段  新生南三段",
    "lat": 25.016355,
    "lng": 121.532656
  },
  {
    "location": "萬華區",
    "address": "環河南三段  萬大路",
    "lat": 25.016567,
    "lng": 121.495628
  },
  {
    "location": "大安區",
    "address": "和平東三段  530巷",
    "lat": 25.01534,
    "lng": 121.561261
  },
  {
    "location": "大安區",
    "address": "和平東三段  596,599號",
    "lat": 25.014146,
    "lng": 121.562351
  },